Number,Station No,Dam Name,Reservoir,Latitude,Longitude,Province,WMA,Place,Catchment Area,"FSC 1,000,000m³ (million m³)",Type,actual lvl 20151130 (million m³),actual lvl 20151207 (million m³),actual lvl 20151214 (million m³),actual lvl 20151221 (million m³),actual lvl 20151228 (million m³),actual lvl 20160104 (million m³),actual lvl 20160111 (million m³),actual lvl 20160118 (million m³),actual lvl 20160125 (million m³),actual lvl 20160201 (million m³),actual lvl 20160208 (million m³),actual lvl 20160215 (million m³),actual lvl 20160229 (million m³),actual lvl 20160307 (million m³),actual lvl 20160314 (million m³),actual lvl 20160321 (million m³),20151123 (percent full),20151130 (percent full),20151207  (percent full),20151214  (percent full),20151221 (percent full),20151228 (percent full),20150104 (percent full),20160111 (percent full),20160118 (percent full),20160125 (percent full),20160201 (percent full),20160208 (percent full),20160215 (percent full),20160229 (percent full),20160307 (percent full),20160314 (percent full),20160321 (percent full),2015 week 11 (percent full)
1,A1R001,Ngotwane Dam ,Ngotwane,25.198599999999999,25.813220000000001,NW,3,Ngotwane River @ Ngotwane Dam,518,19.033000000000001,,2.185,,,,,,0.049,0.67,,1.116,1.044,0.941,0.889,0.867,,1.742,11.7,11.5,,,,,,0.3,3.5,,5.9,5.5,4.9,4.7,4.6,,9.199999999999999,17.899999999999999
2,A2R001,Hartbeespoort Dam ,Hartbeespoort,25.725639999999999,27.848490000000002,NW,3,Krokodil River @ Hartbeespoort Dam,4014,186.44,,169.62,167.5,169.43,169.04,,,172.74,166.73,,181.73,180.11,182.75,181.93,179.91,183.97,185.41,89.4,91,89.8,90.9,90.7,,,92.7,89.4,,97.5,96.6,98,97.6,96.5,98.7,99.4,96.8
3,A2R002,Bon Accord Dam,Bon Accord,25.62257,28.191379999999999,G,3,Apies River @ Bon Accord Dam,315,4.381,,4.537,4.511,4.683,4.709,,,5.122,4.736,,4.669,4.816,4.669,4.577,4.511,4.857,4.669,104.5,103.6,103,106.9,107.5,,,116.9,108.1,,106.6,109.9,106.6,104.5,103,110.9,106.6,107.5
4,A2R003,Olifantsnek Dam ,Olifantsnek,25.78556,27.259209999999999,NW,3,Hex River @ Olifantsnek Dam,493,13.677,,6.599,6.271,6.111,,,,5.35,5.497,,5.063,4.923,4.78,4.501,4.501,4.299,5.277,48.3,48.3,45.8,44.7,,,,39.1,40.200000000000003,,37,36,35,32.9,32.9,31.4,38.6,71.7
5,A2R004,Rietvlei Dam ,Rietvlei,25.876529999999999,28.26519,G,3,Hennops River @ Rietvlei Dam,481,12.25,,10.333,10.316000000000001,10.536,,,,10.897,11.141999999999999,,11.587,,,,,12.269,12.518000000000001,83.8,84.3,84.2,86,,,,89,90.9,,94.6,,,,,100.2,102.2,101.7
6,A2R005,Buffelspoort Dam ,Buffelspoort,25.780349999999999,27.487359999999999,NW,3,Sterkstroom River @ Buffelspoort Dam,119,10.183,,8.401,8.272,8.154999999999999,8.063000000000001,,,7.869,7.723,,7.723,7.601,7.524,7.296,7.274,7.612,8.581,83.7,82.5,81.2,80.099999999999994,79.2,,,77.3,75.8,,75.8,74.599999999999994,73.900000000000006,71.599999999999994,71.400000000000006,74.8,84.3,98.8
7,A2R006,Bospoort Dam ,Bospoort,25.563479999999998,27.349900000000002,NW,3,Hex River @ Bospoort Dam,1068,15.798999999999999,,15.422000000000001,15.347,15.234999999999999,15.05,,,15.198,15.347,,15.497,15.571999999999999,15.534000000000001,15.534000000000001,15.497,16.102,15.988,99,97.6,97.1,96.4,95.3,,,96.2,97.1,,98.1,98.6,98.3,98.3,98.1,101.9,101.2,101.8
8,A2R007,Lindleyspoort Dam ,Lindleyspoort,25.497730000000001,26.689959999999999,NW,3,Elands River @ Lindleyspoort Dam,705,14.208,,1.195,0.939,0.809,0.582,,,0.406,0.371,,0.388,0.382,0.378,0.386,0.378,0.378,0.402,9.699999999999999,8.300000000000001,6.6,5.7,4.1,,,2.9,2.6,,2.7,2.7,2.7,2.7,2.7,2.7,2.8,49.5
9,A2R008,Warmbad Dam ,Warmbad,24.867809999999999,28.259360000000001,LP,3,Buffels Spruit @ Warmbad Dam,134,0.549,Balancing Dam,,,,,,,,,,,,,,,,,,,,,,,,,,,,,,,,,,
10,A2R009,Roodeplaat Dam ,Roodeplaat,25.621079999999999,28.372170000000001,G,3,Pienaars River @ Roodeplaat Dam,682,41.158000000000001,,36.804000000000002,36.912999999999997,37.387999999999998,37.868000000000002,,,37.241,40.530999999999999,,41.079000000000001,40.725999999999999,40.804000000000002,40.843000000000004,40.453000000000003,41.356000000000002,,90.4,89.4,89.7,90.8,92,,,90.5,98.5,,99.8,99,99.1,99.2,98.3,100.5,,100.6
12,A2R011,Kosterrivier Dam ,Koster,25.700089999999999,26.903880000000001,NW,3,Koster River @ Kosterrivier Dam,284,12.417,,5.77,5.546,5.437,5.375,,,4.999,4.911,,4.711,4.613,4.557,4.353,4.245,4.192,4.285,47.9,46.5,44.7,43.8,43.3,,,40.299999999999997,39.5,,37.9,37.1,36.700000000000003,35.1,34.200000000000003,33.799999999999997,34.5,75.900000000000006
13,A2R012,Klipvoor Dam ,Klipvoor,25.131460000000001,27.809059999999999,NW,3,Pienaars River @ Klipvoor Dam,6128,40.734999999999999,,26.733000000000001,25.815000000000001,24.045000000000002,22.75,,,19.122,25.922000000000001,,26.57,24.867000000000001,23.741,21.931999999999999,21.33,24.658999999999999,37.429000000000002,66.7,65.599999999999994,63.4,59,55.9,,,46.9,63.6,,65.2,61,58.3,53.8,52.4,60.5,91.9,96.3
14,A2R013,Swartruggens Dam ,Swartruggens,25.66179,26.69415,NW,3,Elands River @ Swartruggens Dam,505,0.475,,0.003,0.011,,,,,0.003,0.017,,0.003,0.003,0.003,0.003,0.003,0.003,0.003,0.7,0.7,2.3,,,,,0.7,3.6,,0.7,0.7,0.7,0.7,0.7,0.7,0.7,74.400000000000006
15,A2R014,Vaalkop Dam ,Vaalkop,25.308499999999999,27.474460000000001,NW,3,Elands River @ Vaalkop Dam,6063,51.314999999999998,,23.83,24.084,24.084,23.893000000000001,,,23.388000000000002,23.893000000000001,,24.084,23.513999999999999,22.95,22.395,,21.367000000000001,33.683999999999997,45.9,46.4,46.9,46.9,46.6,,,45.6,46.6,,46.9,45.8,44.7,43.6,,41.6,65.599999999999994,53.7
16,A2R015,Roodekopjes Dam ,Roodekopjes,25.406849999999999,27.577500000000001,NW,3,Krokodil River @ Roodekopjes Dam,6120,102.33,,63.481999999999999,58.076999999999998,53.576000000000001,49.238,,,39.381999999999998,43.332999999999998,,37.875,35.408999999999999,33.942999999999998,36.773000000000003,35.338000000000001,67.763000000000005,97.775000000000006,65.5,62,56.8,52.4,48.1,,,38.5,42.3,,37,34.6,33.200000000000003,35.9,34.5,66.2,95.5,81.900000000000006
19,A3R001,Marico-Bosveld Dam ,Marico-Bosveld,25.469740000000002,26.393630000000002,NW,3,Groot-Marico River @ Marico-Bosveld Dam,1228,26.963000000000001,,6.737,6.087,5.497,4.907,,,3.423,4.4,,5.093,4.685,4.788,4.192,3.86,3.669,3.991,26.7,25,22.6,20.399999999999999,18.2,,,12.7,16.3,,18.899999999999999,17.399999999999999,17.8,15.5,14.3,13.6,14.8,64.099999999999994
20,A3R002,Klein Maricopoort Da ,Klein Maricopoort,25.521979999999999,26.149809999999999,NW,3,Klein Marico River @ Klein Maricopoort Da,1189,7.073,,1.991,1.971,,,,,1.582,1.666,,1.672,1.6,1.547,1.439,1.374,,1.672,29.1,28.2,27.9,,,,,22.4,23.6,,23.6,22.6,21.9,20.399999999999999,19.399999999999999,,23.6,56.5
21,A3R003,Kromellenboog Dam ,Kromellenboog,25.4437,26.346589999999999,NW,3,Klein Marico River @ Kromellenboog Dam,1762,8.956,,0.494,0.484,0.436,0.354,,,0,0.886,,1.045,1.007,1,1.25,1.231,1.213,1.615,5.7,5.5,5.4,4.9,4,,,0,9.9,,11.7,11.3,11.2,14,13.7,13.5,18,11.8
22,A3R004,Molatedi Dam ,Molatedi,24.87011,26.453220000000002,NW,3,Groot-Marico River @ Molatedi Dam,8619,200.79,,9.739000000000001,9.299,8.380000000000001,8.180999999999999,,,6.54,14.972,,14.367000000000001,13.781000000000001,14.071999999999999,13.551,13.608000000000001,14.972,85.355999999999995,3.1,4.9,4.6,4.2,4.1,,,3.3,7.5,,7.2,6.9,7,6.7,6.8,7.5,42.5,14
23,A3R005,Sehujwane Dam ,Sehujwane,25.307110000000002,25.94707,NW,3,Sehujane River @ Sehujwane Dam,201,3.614,,1.918,1.936,1.918,1.895,,,1.845,2.584,,2.304,,2.818,2.784,2.705,2.655,3.804,53.6,53.1,53.6,53.1,52.4,,,51.1,71.5,,63.7,,78,77,74.8,73.5,105.3,67.400000000000006
17,A3R006,Madikwe Dam,,,,NW,3,,,15.938000000000001,,3.44,3.338,3.271,3.108,,,2.948,3.271,,3.616,3.492,3.44,4.082,3.948,4.121,6.776,21,21.6,20.9,20.5,19.5,,,18.5,20.5,,22.7,21.9,21.6,25.6,24.8,25.9,42.5,37.200000000000003
18,A3R007,Pella Dam,,,,NW,3,,,2.111,,0.875,0.838,0.831,0.808,,,0.736,0.798,,0.875,0.854,0.82,0.823,0.803,0.79,0.888,42.2,41.4,39.700000000000003,39.299999999999997,38.299999999999997,,,34.9,37.799999999999997,,41.4,40.4,38.9,39,38,37.4,42.1,
24,A4R001,Mokolo Dam ,Mokolo,23.98498,27.723559999999999,LP,1,Mokolo River @ Mokolo Dam,4319,145.37,,124.37,123.01,122.34,121.06,,,117.58,116.92,,114.82,114.24,113.59,112.52,112.02,112.09,118.1,86.7,85.6,84.6,84.2,83.3,,,80.900000000000006,80.400000000000006,,79,78.599999999999994,78.099999999999994,77.400000000000006,77.099999999999994,77.099999999999994,81.2,100.2
27,A6R001,Doorndraai Dam ,Doorndraai,24.279599999999999,28.77768,LP,1,Sterk River @ Doorndraai Dam,580,43.764000000000003,,36.353999999999999,36.003999999999998,35.804000000000002,35.408000000000001,,,34.103000000000002,33.807000000000002,,32.831000000000003,32.494,32.112000000000002,31.827999999999999,31.545000000000002,31.638999999999999,31.78,80.7,83.1,82.3,81.8,80.900000000000006,,,77.900000000000006,77.2,,75,74.2,73.400000000000006,72.7,72.099999999999994,72.3,72.599999999999994,99.7
28,A6R002,Glen Alpine Dam ,Glen Alpine,23.19201,28.697399999999998,LP,1,Mogalakwena River @ Glen Alpine Dam,11245,18.888999999999999,,2.98,2.906,2.821,2.725,,,2.463,2.419,,2.247,2.173,2.131,2.05,1.99,1.95,4.143,16,15.8,15.4,14.9,14.4,,,13,12.8,,11.9,11.5,11.3,10.9,10.5,10.3,21.9,99.5
32,A8R001,Nzhelele Dam ,Nzhelele,22.725529999999999,30.095089999999999,LP,1,Nzhelele River @ Nzhelele Dam,830,51.234000000000002,,24.684000000000001,23.998000000000001,23.523,23.998000000000001,,,21.795999999999999,21.216999999999999,,19.824000000000002,19.172000000000001,18.706,17.437000000000001,16.879000000000001,16.259,15.294,49.6,48.2,46.8,45.9,46.8,,,42.5,41.4,,38.700000000000003,37.4,36.5,34,32.9,31.7,29.9,83.5
33,A8R002,Luphephe Dam ,Luphephe,22.634530000000002,30.401890000000002,LP,1,Luphephe River @ Luphephe Dam,109,13.984,,2.03,1.906,2.151,2.475,,,2.205,2.19,,2.065,1.962,1.888,1.747,1.718,1.676,1.808,15.3,14.5,13.6,15.4,17.7,,,15.8,15.7,,14.8,14,13.5,12.5,12.3,12,12.9,69.5
34,A8R003,Nwanedzi Dam ,Nwanedzi,22.63496,30.398610000000001,LP,1,Nwanedzi River @ Nwanedzi Dam,156,5.144,,1.827,1.813,1.992,1.961,,,1.936,1.95,,1.95,1.947,1.947,1.953,1.967,1.981,2.009,35.6,35.5,35.299999999999997,38.700000000000003,38.1,,,37.6,37.9,,37.9,37.9,37.9,38,38.200000000000003,38.5,39.1,61.4
35,A8R004,Mutshedzi Dam ,Mutshedzi,22.945499999999999,30.164470000000001,LP,1,Mutshedzi River @ Mutshedzi Dam,94,2.336,,1.475,1.459,1.392,1.342,,,1.039,1.003,,1.003,0.99,0.817,0.759,0.704,0.604,0.928,65.7,63.1,62.5,59.6,57.5,,,44.5,42.9,,42.9,42.4,35,32.5,30.1,25.9,39.700000000000003,99.3
36,A9R001,Albasini Dam ,Albasini,23.106780000000001,30.124970000000001,LP,2,Luvuvhu River @ Albasini Dam,503,28.199000000000002,,21.440999999999999,21.297999999999998,21.27,21.155999999999999,,,20.62,20.564,,20.175999999999998,20.094000000000001,19.928999999999998,19.684999999999999,19.521999999999998,19.521999999999998,19.521999999999998,76.7,76,75.5,75.400000000000006,75,,,73.099999999999994,72.900000000000006,,71.599999999999994,71.3,70.7,69.8,69.2,69.2,69.2,90.8
37,A9R002,Vondo Dam ,Vondo,22.950289999999999,30.35172,LP,2,Mutshindudi River @ Vondo Dam,49,30.446999999999999,,23.373999999999999,21.306000000000001,21.2,21.077999999999999,,,20.332999999999998,20.280999999999999,,20.024999999999999,19.738,19.420000000000002,19.32,19.187000000000001,19.170999999999999,19.154,71.599999999999994,76.8,70,69.599999999999994,69.2,,,66.8,66.599999999999994,,65.8,64.8,63.8,63.5,63,63,62.9,94.4
38,A9R004,Nandoni Dam ,Nandoni,22.973009999999999,30.593170000000001,LP,2,Levhuvhu River @ Nandoni Dam,1446,166.11,,129.31,128.13,127.08,126.57,,,121.98,120.34,,117.99,116.28,114.72,111.2,109.88,112.83,116.41,78.599999999999994,77.8,77.099999999999994,76.5,76.2,,,73.400000000000006,72.400000000000006,,71,70,69.099999999999994,66.900000000000006,66.2,67.900000000000006,70.099999999999994,99
39,B1R001,Witbank Dam ,Witbank,25.891570000000002,29.305209999999999,M,4,Olifants River @ Witbank Dam,3579,104.02,,61.71,,,60.036000000000001,,,58.353000000000002,58.106999999999999,,57.25,56.704000000000001,56.042000000000002,55.384999999999998,54.295999999999999,55.981999999999999,65.192999999999998,60.5,59.3,,,57.7,,,56.1,55.9,,55,54.5,53.9,53.2,52.2,53.8,62.7,87.4
40,B1R002,Middelburg Dam ,Middelburg,25.774979999999999,29.546140000000001,M,4,Little Olifants River @ Middelburg Dam,1592,48.055999999999997,,31.747,31.408999999999999,31.14,30.838999999999999,,,29.628,30.31,,29.532,29.02,28.766999999999999,27.890999999999998,27.399000000000001,27.308,27.952999999999999,67.2,66.099999999999994,65.400000000000006,64.8,64.2,,,61.7,63.1,,61.5,60.4,59.9,58,57,56.8,58.2,93.9
41,B2R001,Bronkhorstspruit Dam ,Bronkhorstspruit,25.887170000000001,28.721499999999999,G,4,Bronkhorstspruit @ Bronkhorstspruit Dam,1244,56.994,,40.911999999999999,40.353000000000002,40.076000000000001,39.868000000000002,,,36.43,37.091000000000001,,39.045000000000002,38.433999999999997,38.366,37.826000000000001,36.826000000000001,43.34,45.084000000000003,72.8,71.8,70.8,70.3,70,,,63.9,65.099999999999994,,68.5,67.400000000000006,67.3,66.400000000000006,64.599999999999994,76,79.099999999999994,95.3
42,B3R001,Rust Der Winter Dam ,Rust De Winter,25.234010000000001,28.51755,LP,4,Elands River @ Rust De Winter Dam,1133,28.186,,19.405000000000001,18.965,18.57,18.251999999999999,,,17.526,17.594000000000001,,17.152999999999999,16.82,16.556999999999999,16.231999999999999,16.135000000000002,16.103000000000002,16.425999999999998,69.5,68.8,67.3,65.900000000000006,64.8,,,62.2,62.4,,60.9,59.7,58.7,57.6,57.2,57.1,58.3,93.7
43,B3R002,Loskop Dam ,Loskop,25.41817,29.358830000000001,M,4,Olifants River @ Loskop Dam,12250,361.51,,235.83,229.02,224.99,231.34,,,219.32,221.96,,217.81,213.13,208.87,201.97,199.27,202.33,219.88,66.7,65.2,63.4,62.2,64,,,60.7,61.4,,60.2,59,57.8,55.9,55.1,56,60.8,96.5
46,B3R005,Rhenosterkop Dam ,Rhenosterkop,25.09854,28.918140000000001,M,4,Elands River @ Rhenosterkop Dam,3646,204.58,,61.448999999999998,60.686999999999998,60.234000000000002,59.783000000000001,,,57.277000000000001,57.713999999999999,,55.981999999999999,,54.012999999999998,53.323,52.369,53.735999999999997,53.460999999999999,30.6,30,29.7,29.4,29.2,,,28,28.2,,27.4,,26.4,26.1,25.6,26.3,26.1,45.2
47,B4R001,Tonteldoos Dam ,Tonteldoos,25.279299999999999,29.942340000000002,LP,4,Tonteldoos River @ Tonteldoos Dam,55,0.189,,0.153,0.156,0.191,0.189,,,0.19,0.19,,0.19,0.19,0.19,0.19,0.19,0.19,0.19,92.1,81.099999999999994,82.5,101,100,,,100.3,100.3,,100.3,100.3,100.3,100.3,100.3,100.5,100.2,100.4
48,B4R002,Vlugkraal Dam ,Vlugkraal,25.231349999999999,29.949020000000001,LP,4,Vlugkraal River @ Vlugkraal Dam,15,0.443,,0.333,0.325,0.322,0.336,,,0.32,0.31,,0.3,0.314,0.311,0.298,0.293,0.297,0.305,74.8,75,73.2,72.599999999999994,75.7,,,72.2,69.8,,67.7,70.900000000000006,70.2,67.099999999999994,66.099999999999994,66.900000000000006,68.8,100.4
49,B4R004,Buffelskloof Dam ,Buffelskloof,24.95515,30.265470000000001,M,4,Waterval River @ Buffelskloof Dam,281,5.244,,2.31,2.26,2.283,2.365,,,2.108,2.055,,1.759,1.66,1.604,1.612,1.555,1.756,2.342,46.2,44.1,43.1,43.5,45.1,,,40.200000000000003,39.200000000000003,,33.5,31.7,30.6,30.7,29.6,33.5,44.7,100.8
50,B4R007,De Hoop Dam,De Hoop,24.954809999999998,29.95628,LP,4,Steelpoort River @ DE HOOP DAM,2864,348.7,,326.10000000000002,325.62,325.29000000000002,327.74,,,326.27,325.77999999999997,,323.83,323.51,322.54000000000002,322.38,321.74,322.87,324.97000000000003,94.1,93.5,93.4,93.3,94,,,93.6,93.4,,92.9,92.8,92.5,92.5,92.3,92.6,93.2,100.2
51,B5R002,Flag Boshielo Dam ,Flag Boshielo,24.78069,29.42576,LP,4,Olifants River @ Flag Boshielo Dam,23555,185.13,,102.7,100.77,99.5,98.739000000000004,,,91.888000000000005,90.197000000000003,,84.016000000000005,82.328999999999994,80.225999999999999,78.159000000000006,74.352999999999994,,78.408000000000001,57,55.5,54.4,53.7,53.3,,,49.6,48.7,,45.4,44.5,43.3,42.2,40.200000000000003,,42.4,96.8
53,B6R001,Ohrigstad Dam ,Ohrigstad,24.933140000000002,30.632010000000001,M,4,Ohrigstad River @ Ohrigstad Dam,83,13.448,,1.302,1.289,1.373,1.426,,,1.354,1.309,,1.221,1.175,1.146,1.07,1.012,1.038,1.108,9.9,9.699999999999999,9.6,10.199999999999999,10.6,,,10.1,9.699999999999999,,9.1,8.699999999999999,8.5,8,7.5,7.7,8.199999999999999,55.2
54,B6R003,Blyderivierpoort Dam ,Blyderivierpoort,24.536619999999999,30.79805,M,4,Blyde River @ Blyderivierpoort Dam,2169,54.369,,35.103999999999999,33.837000000000003,33.567999999999998,33.567999999999998,,,30.466999999999999,29.699000000000002,,29.808,29.481000000000002,29.099,27.9,27.195,32.292000000000002,38.07,67.400000000000006,64.599999999999994,62.2,61.7,61.7,,,56,54.6,,54.8,54.2,53.5,51.3,50,59.4,70,100.4
55,B7R001,Klaserie Dam ,Klaserie,24.523890000000002,31.070740000000001,LP,4,Klaserie River @ Klaserie Dam,164,5.604,,4.319,4.233,4.166,4.1,,,3.648,,,3.3,3.234,3.035,2.8,2.748,2.829,3.283,86.3,77.099999999999994,75.5,74.3,73.2,,,65.099999999999994,,,58.9,57.7,54.2,50,49,50.5,58.6,100.5
57,B7R003,Tours Dam ,Tours,24.09853,30.254950000000001,LP,4,Ngwabitsi River @ Tours Dam,45,6.084,,2.793,2.731,2.707,2.691,,,2.452,2.375,,2.209,2.135,2.074,1.988,1.95,2.272,3.064,46.9,45.9,44.9,44.5,44.2,,,40.299999999999997,39,,36.299999999999997,35.1,34.1,32.700000000000003,32,37.299999999999997,50.4,83.6
58,B8R001,Ebenezer Dam ,Ebenezer,23.940110000000001,29.984200000000001,LP,2,Groot-Letaba River @ Ebenezer Dam,166,69.138999999999996,,54.759,54.427,54.095999999999997,53.536000000000001,,,51.747999999999998,51.298999999999999,,50.281999999999996,49.872,49.37,48.405999999999999,48.652999999999999,50.853000000000002,54.393000000000001,79.8,79.2,78.7,78.2,77.400000000000006,,,74.8,74.2,,72.7,72.099999999999994,71.400000000000006,70,70.400000000000006,73.599999999999994,78.7,97.4
59,B8R002,Hans Merensky Dam ,Hans Merensky,23.749410000000001,30.108560000000001,LP,2,Ramadiepa River @ Hans Merensky Dam,86,1.225,,1.139,1.102,1.072,1.116,,,0.931,1.012,,1.037,1.037,1.02,1.046,1.102,1.268,1.23,87.1,93,90,87.5,91.1,,,76,82.6,,84.7,84.7,83.3,85.4,90,103.5,100.4,101.4
60,B8R003,Magoebaskloof Dam ,Magoebaskloof,23.81598,30.056080000000001,LP,2,Politsi River @ Magoebaskloof Dam,66,4.84,,4.844,4.84,4.848,4.848,,,4.84,4.853,,4.84,4.844,4.84,4.853,4.84,4.889,4.893,100.3,100.1,100,100.2,100.2,,,100,100.3,,100,100.1,100,100.3,100,101,101.1,100.3
61,B8R004,Vergelegen Dam ,Vergelegen,23.774999999999999,30.08193,LP,2,Politsi Tributary @ Vergelegen Dam,10,0.254,,0.224,0.233,0.246,0.258,,,0.254,0.256,,0.257,0.257,0.258,0.241,0.249,0.257,0.256,95.2,88.3,92,97.1,101.6,,,100,101,,101.3,101.3,101.6,95.2,98,101.3,101,96.2
62,B8R005,Tzaneen Dam ,Tzaneen,23.797630000000002,30.167349999999999,LP,2,Groot-Letaba River @ Tzaneen Dam,650,156.53,,71.692999999999998,70.424999999999997,68.893000000000001,67.040999999999997,,,60.350999999999999,58.655999999999999,,54.878,53.103000000000002,51.246000000000002,48.256999999999998,46.822000000000003,53.987000000000002,59.780999999999999,46.8,45.8,45,44,42.8,,,38.6,37.5,,35.1,33.9,32.700000000000003,30.8,29.9,34.5,38.200000000000003,77
63,B8R006,Dap Naude Dam ,Dap Naude,23.814209999999999,29.966380000000001,LP,2,Broederstroom River @ Dap Naude Dam,14,1.936,,1.619,1.596,1.572,1.567,,,1.479,1.731,,1.738,1.535,1.558,1.598,1.602,1.836,1.942,83.5,83.6,82.4,81.2,80.900000000000006,,,76.400000000000006,89.4,,89.8,79.3,80.5,82.5,82.8,94.8,100.3,98.6
64,B8R007,Middel-Letaba Dam ,Middel-Letaba,23.275790000000001,30.405989999999999,LP,2,Middel-Letaba River @ Middel-Letaba Dam,1800,171.93,,51.926000000000002,51.192999999999998,50.648000000000003,50.106000000000002,,,47.62,47.357999999999997,,46.329000000000001,45.819000000000003,45.228000000000002,44.390999999999998,43.645000000000003,45.819000000000003,51.011000000000003,30.6,30.2,29.8,29.5,29.1,,,27.7,27.5,,26.9,26.6,26.3,25.8,25.4,26.6,29.7,42
66,B8R009,Nsami Dam ,Nsami,23.254429999999999,30.77055,LP,2,Nsama River @ Nsami Dam,339,21.873999999999999,,6.315,6.149,5.918,,,,4.811,4.688,,4.252,4.194,3.855,3.356,3.152,3.443,3.855,30.4,28.9,28.1,27.1,,,,22,21.4,,19.399999999999999,19.2,17.600000000000001,15.3,14.4,15.7,17.600000000000001,70.099999999999994
69,C1R001,Vaal Dam ,Vaal,26.882339999999999,28.116070000000001,FS,8,Vaal River @ Vaal Dam,38600,2603.4499999999998,,1400.57,1414.47,1416.61,1414.47,,,1380.46,1358.23,,1358.23,1342.54,1315.68,1294.31,1265.27,1248.49,1266.26,53.8,53.8,54.3,54.4,54.3,,,53,52.2,,52.2,51.6,50.5,49.7,48.6,48,48.6,79.400000000000006
70,C1R002,Grootdraai Dam ,Grootdraai,26.918620000000001,29.294779999999999,M,8,Vaal River @ Grootdraai Dam,7982,349.53,,214.02,212.12,207.01,198.44,,,189.76,195.03,,229.15,228.29,225.72,226.29,224.02,226.01,295.92,61.9,61.2,60.7,59.2,56.8,,,54.3,55.8,,65.599999999999994,65.3,64.599999999999994,64.7,64.099999999999994,64.7,84.7,95.1
73,C2R001,Boskop Dam ,Boskop,26.561710000000001,27.11148,NW,8,Mooi River @ Boskop Dam,3297,21.026,,19.628,19.449000000000002,17.709,17.113,,,,14.613,,14.852,14.702999999999999,14.643000000000001,14.702999999999999,14.733000000000001,14.583,14.583,96.8,93.4,92.5,84.2,81.400000000000006,,,,69.5,,70.599999999999994,69.900000000000006,69.599999999999994,69.900000000000006,70.099999999999994,69.400000000000006,69.400000000000006,101.2
74,C2R002,Johan Neser Dam ,Johan Neser,26.81691,26.61373,NW,9,Skoon Spruit @ Johan Neser Dam,5644,5.672,,0,0,0,0,,,0,0,,0,0,0,0,0,0,0,0,0,0,0,0,,,0,0,,0,0,0,0,0,0,0,6.8
75,C2R003,Klerkskraal Dam ,Klerkskraal,26.25254,27.159759999999999,NW,8,Mooi River @ Klerkskraal Dam,1324,7.922,,5.532,5.386,4.962,,,,,3.43,,3.341,3.232,3.211,3.297,3.341,3.825,4.719,73.599999999999994,69.8,68,62.6,,,,,43.3,,42.2,40.799999999999997,40.5,41.6,42.2,48.3,59.6,85
76,C2R004,Potchefstroom Dam ,Potchefstroom,26.674019999999999,27.0959,NW,8,Mooi River @ Potchefstroom Dam,3632,2.027,,1.234,1.293,,1.415,,,1.75,1.78,,1.426,,0.983,0.828,,1.232,2.05,,60.9,63.8,,69.8,,,86.3,87.8,,70.3,,48.5,40.9,,60.8,101.2,62
77,C2R005,Klipdrift Dam ,Klipdrift,26.616499999999998,27.297270000000001,NW,8,Loop Spruit @ Klipdrift Dam,881,13.301,,10.355,9.875999999999999,9.64,9.679,,,8.836,9.138999999999999,,9.718999999999999,9.446,9.215,8.987,8.836,8.798,9.215,78.2,77.900000000000006,74.3,72.5,72.8,,,66.400000000000006,68.7,,73.099999999999994,71,69.3,67.599999999999994,66.400000000000006,66.099999999999994,69.3,86.9
78,C2R006,Elandskuil Dam ,Elandskuil,26.34807,26.778649999999999,NW,9,Swartleegte River @ Elandskuil Dam,29,1.181,,0.246,,0.101,0.083,,,0.11,0.576,,0.363,0.285,,0.088,0.087,0.106,0.093,31.7,20.8,,8.5,7,,,9.300000000000001,48.8,,30.7,24.2,,7.4,7.4,9,7.9,13.1
79,C2R007,Rietspruit Dam ,Rietspruit,26.411259999999999,26.794799999999999,NW,9,Rietspruit @ Rietspruit Dam,375,7.275,,2.007,1.824,1.472,,,,0.71,,,0.871,0.601,,,0,0,0,28.8,27.6,25.1,20.2,,,,9.800000000000001,,,12,8.300000000000001,,0,0,0,0,48.2
82,C3R002,Spitskop Dam ,Spitskop,28.124939999999999,24.502800000000001,NC,10,Harts River @ Spitskop Dam,26920,57.831000000000003,,27.058,25.579000000000001,24.109000000000002,22.515999999999998,,,18.687000000000001,18.273,,20.841999999999999,19.388999999999999,18.273,16.675999999999998,16.036999999999999,15.911,16.675999999999998,48.2,46.8,44.2,41.7,38.9,,,32.299999999999997,31.6,,36,33.5,31.6,28.8,27.7,27.5,28.8,78
,C3R006,Taung Dam,Taung,,,NW,10,,,61.366,,,,,,,,,,,,,,,50.508000000000003,50.304000000000002,50.140999999999998,,,,,,,,,,,,,,82.1,82.3,82,81.7,92
85,C4R001,Allemanskraal Dam ,Allemanskraal,28.288350000000001,27.145810000000001,FS,9,Sand River @ Allemanskraal Dam,3628,174.52,,24.396000000000001,23.774000000000001,23.323,22.518000000000001,,,21.902000000000001,20.440000000000001,,25.298999999999999,24.756,23.861999999999998,23.594000000000001,23.504000000000001,22.341000000000001,22.253,14.3,14,13.6,13.4,12.9,,,12.6,11.7,,14.5,14.2,13.7,13.5,13.5,12.8,12.8,23.8
86,C4R002,Erfenis Dam ,Erfenis,28.510590000000001,26.778379999999999,FS,9,Groot-Vet River @ Erfenis Dam,4724,206.06,,29.574000000000002,27.321999999999999,26.826000000000001,25.370999999999999,,,21.056999999999999,21.327999999999999,,22.812000000000001,21.600999999999999,20.343,17.882999999999999,,19.302,19.472999999999999,15,14.4,13.3,13,12.3,,,10.199999999999999,10.4,,11.1,10.5,9.9,8.699999999999999,,9.4,9.4,27.6
87,C5R001,Tierpoort Dam ,Tierpoort,29.421759999999999,26.135940000000002,FS,13,Tierpoort River @ Tierpoort Dam,922,33.994999999999997,,0,0,0,0,,,0,0,,,0,0,0,0,0,0,0,0,0,0,0,,,0,0,,,0,0,0,0,0,0,0.2
88,C5R002,Kalkfontein Dam ,Kalkfontein,29.495640000000002,25.22175,FS,13,Riet River @ Kalkfontein Dam,10265,325.13,,23.594999999999999,21.603000000000002,20.936,20.283000000000001,,,18.818000000000001,18.981000000000002,,22.026,21.268000000000001,20.69,19.643000000000001,19.309999999999999,19.145,19.260999999999999,7.5,7.3,6.6,6.4,6.2,,,5.8,5.8,,6.8,6.5,6.4,6,5.9,5.9,5.9,18.399999999999999
89,C5R003,Rustfontein Dam ,Rustfontein,29.270800000000001,26.615590000000001,FS,13,Modder River @ Rustfontein Dam,937,71.207999999999998,,13.347,12.888,12.775,12.813000000000001,,,13.04,13.347,,14.085000000000001,14.244,14.244,14.728,15.057,15.516999999999999,15.686999999999999,19.3,18.7,18.100000000000001,17.899999999999999,18,,,18.3,18.7,,19.8,20,20,20.7,21.1,21.8,22,20.3
90,C5R004,Krugersdrift Dam ,Krugersdrift,28.883900000000001,25.956389999999999,FS,13,Modder River @ Krugersdrift Dam,7460,71.478999999999999,,18.898,,4.278,3.617,,,3.485,3.463,,5.256,5.161,5.036,4.944,4.853,4.733,4.674,27.1,26.4,,6,5.1,,,4.9,4.8,,7.4,7.2,7,6.9,6.8,6.6,6.5,55.6
91,C5R005,Groothoek Dam ,Groothoek,29.30256,26.84751,FS,13,Kgabanyane River @ Groothoek Dam,116,11.904999999999999,,0,0,0,0,,,0,0,,,0,0,0,0,0,0,0,0,0,0,0,,,0,0,,,0,0,0,0,0,0,0
92,C7R001,Koppies Dam ,Koppies,27.257020000000001,27.672080000000001,FS,9,Renoster River @ Koppies Dam,2155,42.311,,23.286000000000001,23.391999999999999,22.655000000000001,21.722000000000001,,,18.736999999999998,18.163,,17.224,16.488,15.855,16.853999999999999,16.488,16.396999999999998,16.488,56.8,55,55.3,53.5,51.3,,,44.3,42.9,,40.700000000000003,39,37.5,39.799999999999997,39,38.799999999999997,39,73.400000000000006
97,C8R003,Sterkfontein Dam ,Sterkfontein,28.38683,29.015630000000002,FS,8,Nuwejaar Spruit @ Sterkfontein Dam,195,2616.9,Balancing Dam,2425.06,2389.7800000000002,2361.87,2331.4499999999998,,,2285.1799999999998,2283.25,,2290.9499999999998,2294.79,2297.35,2303.7600000000002,2306.33,2310.19,2310.19,93.8,92.7,91.3,90.3,89.1,,,87.3,87.3,,87.5,87.7,87.8,88,88.1,88.3,88.3,97.9
98,C8R004,Saulspoort Dam ,Saulspoort,28.217030000000001,28.363109999999999,FS,8,Liebenbergvlei @ Saulspoort Dam,746,15.675000000000001,Balancing Dam,15.712999999999999,,15.534000000000001,15.147,,,15.252000000000001,15.287000000000001,,14.494,15.605,15.826000000000001,15.497999999999999,15.428000000000001,15.462999999999999,15.569000000000001,98.2,100.2,,99.1,96.6,,,97.3,97.5,,92.5,99.5,101,98.9,98.4,98.6,99.3,98.8
102,C8R008,Fika-Patso Dam ,Fika-Patso,28.67201,28.856249999999999,FS,8,Namahadi River @ Fika-Patso Dam,64,29.411000000000001,,4.896,,4.926,,,,5.002,5.088,,,,5.116,5.117,,5.113,,17,16.600000000000001,,16.7,,,,17,17.3,,,,17.399999999999999,17.399999999999999,,17.399999999999999,,66.599999999999994
103,C9R001,Vaalharts Storage Weir  ,"Vaalharts  Storage Weir",28.115290000000002,24.925650000000001,NC,10,Vaal River @ Vaalharts Storage We,115350,50.682000000000002,Balancing Dam,38.747999999999998,39.088999999999999,36.417999999999999,37.904000000000003,,,41.534999999999997,43.162999999999997,,35.771000000000001,36.744999999999997,35.771000000000001,38.578000000000003,37.737000000000002,39.777000000000001,36.991,74.099999999999994,76.5,77.099999999999994,71.900000000000006,74.8,,,82,85.2,,70.599999999999994,72.5,70.599999999999994,76.099999999999994,74.5,78.5,73,85.4
104,C9R002,Bloemhof Dam ,Bloemhof,27.669219999999999,25.616569999999999,FS,9,Vaal River @ Bloemhof Dam,108360,1240.24,,446.29,419.25,392.27,363.35,,,276.57,250.79,,277.49,259.45999999999998,239.01,200.88,191.75,174.45,190.26,37.200000000000003,36,33.799999999999997,31.6,29.3,,,22.3,20.2,,22.4,20.9,19.3,16.2,15.5,14.1,15.3,65.2
105,C9R003,Douglas Storage Weir  ,"Douglas Storage Weir",29.044049999999999,23.835180000000001,NC,14,Vaal River @ Douglas Storage Weir,193840,16.245000000000001,Balancing Dam,16.651,17.119,15.763999999999999,13.625,,,9.33,8.881,,17.355,16.245000000000001,13.117000000000001,16.962,17.276,17.753,17.434000000000001,86.6,102.5,105.4,97,83.9,,,57.4,54.7,,106.8,100,80.7,104.4,106.3,109.3,107.3,106.3
106,D1R001,Sterkspruit Dam ,Sterkspruit,30.636510000000001,27.369679999999999,EC,13,Sterkspruit @ Sterkspruit Dam,77,9.473000000000001,,8.138,,7.927,7.827,,,7.448,7.423,,,,7.399,,,8.430999999999999,,87.2,85.9,,83.7,82.6,,,78.599999999999994,78.400000000000006,,,,78.099999999999994,,,89,,101
107,D1R002,Katse Dam ,Katse,29.33672,28.50637,L,13,Malibamatso River @ Katse Dam,1867,1519.1,Water available to RSA from Lesothon,1005.16,992.4,977.03,964.85,,,919.02,906.81,,905.14,910.43,903.01,968.93,969.52,998.23,1008.63,67.099999999999994,66.2,65.3,64.3,63.5,,,60.5,59.7,,59.6,59.9,59.4,63.8,63.8,65.7,66.400000000000006,89.2
108,D1R003,Mohale Dam ,Mohale,29.457799999999999,28.096329999999998,L,13,Senqunyane River @ Mohale Dam,935,857.1,,255.24,,244.25,239.18,,,221.21,218.26,,222.47,221.42,215.34,229.51,229.08,235.35,237.64,30.6,29.8,,28.5,27.9,,,25.8,25.5,,26,25.8,25.1,26.8,26.7,27.5,27.7,44.9
109,D2R001,Egmont Dam ,Egmont,30.052600000000002,27.02741,FS,13,Witspruit @ Egmont Dam,310,9.058999999999999,,4.25,4.008,3.724,3.516,,,2.667,2.697,,2.682,2.477,2.224,2.175,1.996,1.991,1.898,49.4,46.9,44.2,41.1,38.799999999999997,,,29.4,29.8,,29.6,27.3,24.6,24,22,22,20.9,79.099999999999994
110,D2R002,Armenia Dam ,Armenia,29.364329999999999,27.128900000000002,FS,13,Leeu River @ Armenia Dam,861,12.957000000000001,,2.387,2.17,2.058,1.886,,,1.488,1.463,,1.551,1.476,1.402,1.342,1.295,1.307,1.295,19,18.399999999999999,16.7,15.9,14.6,,,11.5,11.3,,12,11.4,10.8,10.4,10,10.1,10,40.799999999999997
111,D2R004,Welbedacht Dam ,Welbedacht,29.909379999999999,26.860330000000001,FS,13,Caledon River @ Welbedacht Dam,15285,9.592,Balancing Dam,8.519,5.492,4.691,5.076,,,6.311,9.195,,10.250999999999999,10.250999999999999,9.776,9.352,9.352,10.058999999999999,9.776,97.5,88.8,57.3,48.9,52.9,,,65.8,95.9,,106.9,106.9,101.9,97.5,97.5,104.9,101.9,103.7
112,D2R006,Knellpoort Dam ,Knellpoort,29.781659999999999,26.8887,FS,13,Rietspruit @ Knellpoort Dam,764,130,,43.692,43.37,42.889000000000003,42.622999999999998,,,41.83,41.83,,42.889000000000003,42.889000000000003,42.835999999999999,42.889000000000003,42.094000000000001,42.622999999999998,42.889000000000003,33.4,33.6,33.4,33,32.799999999999997,,,32.200000000000003,32.200000000000003,,33,33,33,33,32.4,32.799999999999997,33,45.3
114,D3R002,Gariep Dam ,Gariep,30.623239999999999,25.506779999999999,FS,13,Orange River @ Gariep Dam,70655,5196.04,,2772.92,2725.86,2677.67,2630.18,,,2472.89,2453.29,,2543.15,2557.7600000000002,2559.59,2798.75,2802.74,2735.6,2723.91,54.4,53.4,52.5,51.5,50.6,,,47.6,47.2,,48.9,49.2,49.3,53.9,53.9,52.6,52.4,88.3
115,D3R003,Vanderkloof Dam ,Vanderkloof,29.991489999999999,24.73189,FS,13,Orange River @ Vanderkloof Dam,89755,3171.3,,2645.96,2598,2528.9499999999998,2461.23,,,2256.4699999999998,2200.2199999999998,,2090.4699999999998,2032.01,1967.91,1855.66,1806.13,1823.45,1868.66,85.3,83.4,81.900000000000006,79.7,77.599999999999994,,,71.2,69.400000000000006,,65.900000000000006,64.099999999999994,62.1,58.5,57,57.5,58.9,89.9
117,D4R003,Disaneng Dam ,Disaneng,25.824079999999999,25.313389999999998,NW,3,Molopo River @ Disaneng Dam,3366,14.125,,6.003,5.932,6.926,7.193,,,6.098,5.283,,5.155,5.059,5.071,4.808,4.83,4.613,4.507,43,42.5,42,49,50.9,,,43.2,37.4,,36.5,35.799999999999997,35.9,34,34.200000000000003,32.700000000000003,31.9,60.2
118,D4R004,Setumo Dam ,Setumo,25.857500000000002,25.508610000000001,NW,3,Molopo River @ Setumo Dam,1787,20.718,,10.332000000000001,9.789,,,,,0.013,9.394,,9.368,9.178000000000001,9.035,8.757999999999999,8.634,9.525,8.269,,49.9,47.3,,,,,0.1,45.3,,45.2,44.3,43.6,42.3,41.7,46,39.9,68.5
123,D7R001,Boegoeberg Dam ,Boegoeberg,29.041070000000001,22.202300000000001,NC,14,Orange River @ Boegoeberg Dam,343050,19.815000000000001,Balancing Dam,20.763999999999999,19.43,21.137,20.030999999999999,,,19.353999999999999,21.44,,20.321999999999999,19.050999999999998,16.280999999999999,20.321999999999999,18.529,20.103000000000002,,104.8,104.8,98.1,106.7,101.1,,,97.7,108.2,,102.6,96.1,82.2,102.6,93.5,101.5,,96.3
124,E1R001,Bulshoek Dam ,Bulshoek,31.99614,18.78708,WCw,17,Olifants River @ Bulshoek Dam,2770,4.809,,2.908,3.425,3.589,3.454,,,3.139,3.309,,3.41,3.181,3.111,2.782,3.125,2.81,2.401,65.599999999999994,60.5,71.2,74.599999999999994,71.8,,,65.3,68.8,,70.900000000000006,66.099999999999994,64.7,57.9,65,58.4,49.9,90
125,E1R002,Clanwilliam Dam ,Clanwilliam,32.184699999999999,18.874420000000001,WCw,17,Olifants River @ Clanwilliam Dam,2017,122.48,,85.040999999999997,80.159000000000006,75.792000000000002,72.671000000000006,,,57.945,53.097000000000001,,44.563000000000002,40.537999999999997,36.561,29.201000000000001,25.170999999999999,22.312000000000001,19.481000000000002,72.5,69.400000000000006,65.400000000000006,61.9,59.3,,,47.3,43.4,,36.4,33.1,29.9,23.8,20.6,18.2,15.9,25.9
126,E4R001,Karee Dam ,Karee,31.428460000000001,19.788180000000001,NC,17,Karee River @ Karee Dam,18,0.949,,0.429,0.4,0.381,0.365,,,0.298,0.277,,0.251,0.232,0.221,0.176,0.16,0.144,0.128,47,45.2,42.1,40.200000000000003,38.5,,,31.4,29.2,,26.4,24.4,23.3,18.5,16.8,15.2,13.5,32.700000000000003
127,G1R001,Voelvlei Dam ,Voelvlei,33.339359999999999,19.02937,WCw,19,Voelvlei River @ Voelvlei Dam,42,158.58000000000001,,60.317999999999998,58.22,54.302999999999997,52.585999999999999,,,47.17,43.847000000000001,,41.095999999999997,39.954000000000001,38.601999999999997,36.142000000000003,35.231000000000002,32.936999999999998,32.640999999999998,39.4,38,36.700000000000003,34.200000000000003,33.200000000000003,,,29.7,27.6,,25.9,25.2,24.3,22.8,22.2,20.8,20.6,56.5
128,G1R002,Wemmershoek Dam,Wemmershoek,,,WCw,19,,,58.71,,37.273000000000003,36.700000000000003,36.22,35.722000000000001,,,34.252000000000002,33.749000000000002,,32.92,32.49,32.021999999999998,31.036999999999999,30.68,30.167999999999999,29.776,64.400000000000006,63.5,62.5,61.7,60.8,,,58.3,57.5,,56.1,55.3,54.5,52.9,52.3,51.4,50.7,62.1
129,G1R003,Misverstand Dam ,Misverstand,33.024850000000001,18.788959999999999,WCw,19,Berg River @ Misverstand Dam,3972,6.439,Balancing Dam,5.741,,7.1,6.664,,,6.086,5.961,,6.613,5.741,5.937,6.362,5.716,5.668,6.061,90.7,89.2,,110.3,103.5,,,94.5,92.6,,102.7,89.2,92.2,98.8,88.8,88,94.1,102.7
130,G1R004,Berg River Dam  ,Berg River,33.908700000000003,19.057950000000002,WCw,19,Berg River @ Berg River dam,78,127.05,,100.85,100.5,91.896000000000001,88.56,,,75.180999999999997,69.912000000000006,,,63.551000000000002,62.031999999999996,42.726999999999997,39.450000000000003,35.576999999999998,31.951000000000001,81.3,79.400000000000006,79.099999999999994,72.3,69.7,,,59.2,55,,,50,48.8,33.6,31.1,28,25.1,62.8
132,G4R001,Steenbras Dam Lower  ,Steenbras,34.186869999999999,18.85247,WCw,19,Steenbras River @ Steenbras Dam-Lower,67,33.880000000000003,Balancing Dam,24.524999999999999,23.459,22.832999999999998,21.702999999999999,,,19.038,17.573,,15.685,14.849,13.962999999999999,15.563000000000001,16.280999999999999,15.513999999999999,14.733000000000001,75.2,72.400000000000006,69.2,67.400000000000006,64.099999999999994,,,56.2,51.9,,46.3,43.8,41.2,45.9,48.1,45.8,43.5,47.1
133,G4R002,Eikenhof Dam ,Eikenhof,34.127519999999997,19.03471,WCw,18,Palmiet River @ Eikenhof Dam,64,28.856000000000002,,26.850999999999999,26.081,25.323,24.826000000000001,,,22.425000000000001,21.484999999999999,,19.917999999999999,19.036999999999999,18.183,16.451000000000001,15.675000000000001,15.113,14.302,94.6,93.1,90.4,87.8,86,,,77.7,74.5,,69,66,63,57,54.3,52.4,49.6,60.4
135,G4R007,Steenbras Dam - Upper  ,"Steenbrasdam-Upper",34.168030000000002,18.90165,WCw,19,Steenbras River @ Steenbras Dam-Upper,30,31.811,Balancing Dam,25.838000000000001,25.603000000000002,24.791,24.631,,,24.38,24.722000000000001,,24.198,24.494,24.108000000000001,20.492000000000001,19.081,18.669,18.553000000000001,84.7,81.2,80.5,77.900000000000006,77.400000000000006,,,76.599999999999994,77.7,,76.099999999999994,77,75.8,64.400000000000006,60,58.7,58.3,77.5
199,R2L001,Debe Dam,Debe,,,EC,12,,,6.331,,6.165,6.138,6.102,6.029,,,5.867,5.805,,5.718,5.665,5.639,5.544,5.502,5.57,5.544,97.8,97.4,97,96.4,95.2,,,92.7,91.7,,90.3,89.5,89.1,87.6,86.9,88,87.6,94.5
136,G4R010,De Bos Dam ,De Bos,34.367919999999998,19.233750000000001,WCw,18,Onrus River @ De Bos Dam,33,5.735,,5.568,5.475,5.357,5.238,,,4.861,4.745,,4.513,4.416,4.328,4.166,4.091,4.042,3.965,97.8,97.1,95.5,93.4,91.3,,,84.8,82.7,,78.7,77,75.5,72.599999999999994,71.3,70.5,69.099999999999994,76.2
137,H1R001,Brandvlei Dam ,Brandvlei,33.70185,19.45007,WCw,18,Lower Brandvlei River @ Brandvlei Dam,63,286.04000000000002,,150.91,145.76,139.79,133.88999999999999,,,115.68,109.54,,98.287000000000006,92.608000000000004,86.557000000000002,75.784000000000006,70.819000000000003,65.501000000000005,60.134999999999998,54.4,52.8,51,48.9,46.8,,,40.4,38.299999999999997,,34.4,32.4,30.3,26.5,24.8,22.9,21,41.3
138,H1R002,Stettynskloof Dam ,Stettynskloof,33.836379999999998,19.251760000000001,WCw,18,Holsloot River @ Stettynskloof Dam,55,14.747,,13.576000000000001,13.173999999999999,12.574999999999999,12.093999999999999,,,10.397,9.781000000000001,,8.83,8.343,7.81,6.901,6.43,6.091,5.739,94.1,92.1,89.3,85.3,82,,,70.5,66.3,,59.9,56.6,53,46.8,43.6,41.3,38.9,43.8
196,H1R003,Ceres Dam,Ceres,,,WCw,18,,,17.25,,,,,,,,,,,,,,2.34,,2.062,2.02,,,,,,,,,,,,,14.2,13.6,,12,11.7,
140,H2R001,Roode Els Berg Dam ,Roode Elsberg,33.436149999999998,19.568449999999999,WCw,18,Sanddrifskloof River @ Roode Els Berg Dam,142,7.727,,6.786,6.586,6.128,5.85,,,4.866,4.339,,3.914,3.841,3.234,2.659,2.431,2.231,1.965,91.5,87.8,85.2,79.3,75.7,,,63,56.2,,50.7,49.7,41.9,34.4,31.5,28.9,25.4,39.4
141,H2R002,Lakenvallei Dam ,Lakenvallei,33.366610000000001,19.580719999999999,WCw,18,Sanddrifskloof River @ Lakenvallei Dam,82,10.263999999999999,,9.903,,9.805999999999999,9.75,,,9.582000000000001,9.27,,9.276999999999999,9.192,9.161,9,8.970000000000001,8.909000000000001,8.871,97,96.5,,95.5,95,,,93.4,90.3,,90.4,89.6,89.3,87.7,87.4,86.8,86.4,92.1
142,H3R001,Poortjieskloof Dam ,Poortjies Kloof,33.858220000000003,20.371359999999999,WCw,18,Groot River @ Poortjieskloof Dam,94,9.720000000000001,,9.555,,9.433,,,,8.76,8.645,,8.433999999999999,,,,7.804,7.804,,97.6,98.3,,97,,,,90.1,88.9,,86.8,,,,80.3,80.3,,73.3
143,H3R002,Pietersfontein Dam ,Pietersfontein,33.67004,20.016390000000001,WCw,18,Pietersfontein River @ Pietersfontein Dam,115,1.984,,1.959,1.942,1.933,1.914,,,1.858,1.839,,1.805,1.787,1.766,1.73,1.71,1.695,1.674,99,98.7,97.9,97.4,96.4,,,93.6,92.7,,91,90.1,89,87.2,86.1,85.4,84.4,82.1
145,H4R002,Keerom Dam ,Keerom,33.58625,19.707609999999999,WCw,18,Nuy River @ Keerom Dam,396,9.75,,9.125999999999999,,,,,,8.167999999999999,8.039,,,,,,6.784,6.784,,96.8,93.6,,,,,,83.8,82.5,,,,,,69.599999999999994,69.599999999999994,,70.099999999999994
146,H4R003,Klipberg Dam ,Klipberg,33.942120000000003,19.793530000000001,WCw,18,Konings River @ Klipberg Dam,51,1.978,,1.898,,1.83,1.788,,,1.647,1.594,,1.502,1.44,1.387,,1.278,1.192,1.123,96.5,96,,92.5,90.4,,,83.3,80.599999999999994,,75.900000000000006,72.8,70.099999999999994,,64.599999999999994,60.2,56.7,43.9
147,H4R004,Kwaggaskloof Dam ,Kwaggaskloof,33.761870000000002,19.472159999999999,WCw,18,Doorn River @ Kwaggaskloof Dam,53,169.41,,87.417000000000002,84.694000000000003,81.418000000000006,78.331999999999994,,,68.578000000000003,65.408000000000001,,59.600999999999999,56.662999999999997,53.996000000000002,48.784999999999997,46.241999999999997,44.192,41.767000000000003,53.2,51.6,50,48.1,46.2,,,40.5,38.6,,35.200000000000003,33.4,31.9,28.8,27.3,26.1,24.7,41.5
148,H6R001,Theewaterskloof Dam ,"Thee Waters Kloof",34.07741,19.289929999999998,WCw,18,Riviersonderend @ Theewaterskloof Dam,498,479.26,,324.60000000000002,316.45999999999998,307.33,299.14999999999998,,,268.64999999999998,258.06,,238.08,227.06,215.79,196.37,188.66,178.71,169.89,69.099999999999994,67.7,66,64.099999999999994,62.4,,,56.1,53.8,,49.7,47.4,45,41,39.4,37.299999999999997,35.4,63
149,H6R002,Elandskloof Dam ,Elandskloof,33.95214,19.28454,WCw,18,Elands River @ Elandskloof Dam,50,10.993,,9.977,9.551,9.358,7.971,,,7.638,7.064,,5.851,5.452,,4.053,4.669,3.382,3.016,92,90.8,86.9,85.1,72.5,,,69.5,64.3,,53.2,49.6,,36.9,42.5,30.8,27.4,34.799999999999997
150,H7R001,Buffeljags Dam ,Buffelsjags,34.018729999999998,20.532830000000001,WCo,18,Buffeljags River @ Buffeljags Dam,614,4.543,,4.607,4.543,4.48,4.405,,,4.594,4.607,,4.556,4.697,4.568,4.556,4.417,4.645,4.607,100.8,101.4,100,98.6,97,,,101.1,101.4,,100.3,103.4,100.6,100.3,97.2,102.3,101.4,100.7
151,H8R001,Duiwenhoks Dam ,Duiwenhoks,33.996630000000003,20.948969999999999,WCo,16,Duiwenhoks River @ Duiwenhoks Dam,146,6.18,,6.212,6.193,6.174,6.061,,,6.199,6.212,,6.148,6.212,6.18,6.18,,6.174,6.193,100.4,100.5,100.2,99.9,98.1,,,100.3,100.5,,99.5,100.5,100,100,,99.9,100.2,92.3
152,H9R001,Korentepoort Dam ,Korentepoort,34.004809999999999,21.16574,WCo,16,Korinte River @ Korentepoort Dam,37,8.092,,8.112,8.019,7.856,7.664,,,7.476,7.684,,7.555,7.856,7.805,7.897,7.775,7.907,8.122999999999999,99.9,100.3,99.1,97.1,94.7,,,92.4,95,,93.4,97.1,96.5,97.6,96.1,97.7,100.4,63
153,J1R001,Prinsrivier Dam ,Prinsrivier,33.517049999999998,20.7529,WCo,16,Prins River @ Prinsrivier Dam,757,2.258,,1.188,1.107,0.944,0.899,,,1.058,1.05,,0.932,0.835,0.744,0.713,0.689,0.554,0.494,59,52.6,49,41.8,39.799999999999997,,,46.9,46.5,,41.3,37,33,31.6,30.5,24.5,21.9,7.8
154,J1R002,Bellair Dam ,Bellair,33.712000000000003,20.597629999999999,WCo,16,Brak River @ Bellair Dam,558,4.241,,3.878,3.845,3.811,3.767,,,3.671,3.629,,3.545,3.493,3.452,3.351,3.321,3.301,3.231,92,91.5,90.7,89.9,88.8,,,86.6,85.6,,83.6,82.4,81.400000000000006,79,78.3,77.8,76.2,69.7
155,J1R003,Floriskraal Dam ,Floris Kraal,33.291699999999999,20.990369999999999,WCo,16,Buffels River @ Floriskraal Dam,4024,48.265999999999998,,12.021000000000001,11.867000000000001,11.02,6.523,,,5.419,5.229,,4.937,4.74,4.577,3.944,3.826,3.711,3.599,25.3,24.9,24.6,22.8,13.5,,,11.2,10.8,,10.199999999999999,9.800000000000001,9.5,8.199999999999999,7.9,7.7,7.5,42.6
156,J1R004,Miertjieskraal Dam ,Miertjies Kraal,33.828890000000001,21.13317,WCo,16,Brand River @ Miertjieskraal Dam,251,1.517,,1.52,1.507,1.512,1.505,,,1.392,1.051,,1.037,1.025,1.012,0.646,,0.635,0.627,96.5,100.2,99.4,99.7,99.2,,,91.7,69.3,,68.400000000000006,67.5,66.7,42.6,,41.9,41.4,23.7
157,J2R001,Calitzdorp Dam ,Calitzdorp,33.490580000000001,21.70458,WCo,16,Nels River @ Calitzdorp Dam,37,4.817,,4.653,4.659,4.502,4.349,,,4.767,4.681,,4.557,4.585,4.37,4.236,4.231,4.115,3.946,100.2,96.6,96.7,93.5,90.3,,,99,97.2,,94.6,95.2,90.7,87.9,87.8,85.4,81.900000000000006,50.5
158,J2R002,Leeugamka Dam ,Leeugamka,32.622430000000001,22.00535,WCo,16,Leeu River @ Leeugamka Dam,2088,13.584,,0.013,0.009,0.008,0.008,,,0.14,2.013,,3.792,3.474,3.116,2.539,2.266,1.948,1.676,0.1,0.1,0.1,0.1,0.1,,,1,14.8,,27.9,25.6,22.9,18.7,16.7,14.3,12.3,0
159,J2R003,Oukloof Dam ,Oukloof,33.245190000000001,22.090910000000001,WCo,16,Cordiers River @ Oukloof Dam,141,4.19,,2.874,2.803,2.762,2.737,,,2.59,2.552,,2.514,2.443,2.391,2.318,2.246,2.175,2.093,69.7,68.599999999999994,66.900000000000006,65.900000000000006,65.3,,,61.8,60.9,,60,58.3,57.1,55.3,53.6,51.9,49.9,30.7
160,J2R004,Gamka Dam ,Gamka,32.238770000000002,22.586510000000001,WCo,16,Gamka River @ Gamka Dam,98,1.82,,0.312,0.267,0.247,0.218,,,0.239,0.933,,1.115,1.115,1.086,0.918,0.89,0.858,0.814,17.600000000000001,17.100000000000001,14.7,13.6,12,,,13.1,51.3,,61.3,61.3,59.7,50.4,48.9,47.2,44.7,6.2
162,J2R006,Gamkapoort Dam ,Gamkapoort,33.309190000000001,21.6342,WCo,16,Gamka River @ Gamkapoort Dam,17055,36.234000000000002,,6.624,5.287,4.068,3.793,,,2.461,2.769,,6.675,6.675,6.424,5.726,4.36,2.611,1.03,22.8,18.3,14.6,11.2,10.5,,,6.8,7.6,,18.399999999999999,18.399999999999999,17.7,15.8,12,7.2,2.8,20.9
165,J3R001,Kammanassie Dam ,Kammanassie,33.643979999999999,22.408550000000002,WCo,16,Kammanassie River @ Kammanassie Dam,1525,34.353999999999999,,32.448999999999998,31.210999999999999,30.588999999999999,30.491,,,29.78,29.588000000000001,,28.733000000000001,28.545000000000002,28.359000000000002,28.018000000000001,27.436,26.382000000000001,24.498000000000001,99.3,94.5,90.9,89,88.8,,,86.7,86.1,,83.6,83.1,82.5,81.599999999999994,79.900000000000006,76.8,71.3,43.4
166,J3R002,Stompdrift Dam ,Stompdrift,33.511679999999998,22.585509999999999,WCo,16,Olifants River @ Stompdrift Dam,5224,49.579000000000001,,26.181999999999999,25.751999999999999,24.988,24.527999999999999,,,23.460999999999999,22.858000000000001,,29.503,28.372,27.707000000000001,26.92,26.704000000000001,26.355,24.238,54,52.8,51.9,50.4,49.5,,,47.3,46.1,,59.5,57.2,55.9,54.3,53.9,53.2,48.9,35.799999999999997
168,K1R001,Hartebeestkuil Dam ,Hartebeestkuil,34.096440000000001,22.007490000000001,WCo,16,Hartenbos River @ Hartebeestkuil Dam,100,7.133,,6.081,5.999,5.927,5.836,,,5.576,5.497,,5.32,5.243,5.148,4.988,4.905,4.86,4.805,86.3,85.3,84.1,83.1,81.8,,,78.2,77.099999999999994,,74.599999999999994,73.5,72.2,69.900000000000006,68.8,68.099999999999994,67.400000000000006,47.2
169,K1R002,Klipheuwel Dam ,Klipheuwel,34.054070000000003,22.139399999999998,WCo,16,Hartenbos River @ Klipheuwel Dam,11,4.45,,4.174,4.224,4.143,4.188,,,3.915,3.834,,3.885,3.864,3.851,3.821,3.783,3.907,4.028,94.5,93.8,94.9,93.1,94.1,,,88,86.2,,87.3,86.8,86.5,85.9,85,87.8,90.5,72.099999999999994
170,K2R001,Ernest Robertson Dam  ,Ernest Robertson,33.902140000000003,22.174299999999999,WCo,16,Groot Brak River @ Ernest Robertson Dam,17,0.415,,0.418,0.416,0.42,0.419,,,0.418,0.418,,0.413,0.414,0.401,0.396,0.387,0.42,0.419,100.4,100.8,100.4,101.2,101,,,100.7,100.7,,99.6,99.7,96.6,95.4,93.4,101.2,101,100.3
171,K2R002,Wolwedans Dam ,Wolwedans,34.014449999999997,22.229050000000001,WCo,16,Groot Brak River @ Wolwedans Dam,123,24.626000000000001,,24.672999999999998,24.533000000000001,24.382000000000001,24.335999999999999,,,24.672999999999998,24.672999999999998,,24.556000000000001,24.475000000000001,24.300999999999998,23.795000000000002,23.504999999999999,23.75,23.67,99.4,100.2,99.6,99,98.8,,,100.2,100.2,,99.7,99.4,98.7,96.6,95.4,96.4,96.1,91.1
172,K3R002,Garden Route Dam ,Garden Route,33.964089999999999,22.514299999999999,WCo,16,Swart River @ Garden Route Dam,36,9.978999999999999,,9.978999999999999,9.978999999999999,9.978999999999999,9.952999999999999,,,9.978999999999999,9.978999999999999,,9.892,9.771000000000001,9.576,9.242000000000001,9.038,8.949,8.893000000000001,99.1,100,100,100,99.7,,,100,100,,99.1,97.9,96,92.6,90.6,89.7,89.1,90.5
173,K6R001,Roodefontein Dam ,Roodefontein,34.066670000000002,23.334379999999999,WCo,16,Piesang River@ Roodefontein Dam,28,1.99,,2.017,2.003,2.01,2.017,,,1.981,1.981,,1.968,1.968,1.952,1.924,1.902,1.899,1.883,101.3,101.3,100.7,101,101.3,,,99.5,99.5,,98.9,98.9,98.1,96.7,95.6,95.4,94.6,98.3
174,K9R001,Kromrivier Dam ,Kromrivier,34.000790000000002,24.492979999999999,EC,15,Krom River @ Kromrivier Dam,364,35.24,,35.409999999999997,35.360999999999997,35.167000000000002,34.973999999999997,,,33.942999999999998,33.588000000000001,,32.698999999999998,32.234999999999999,31.637,30.640999999999998,30.285,29.837,29.373000000000001,100.3,100.5,100.3,99.8,99.2,,,96.3,95.3,,92.8,91.5,89.8,87,85.9,84.7,83.4,52.5
175,K9R002,Impofu Dam ,Impofu,34.094990000000003,24.690380000000001,EC,15,Krom River @ Impofu Dam,844,105.76,,106.2,105.88,105.57,105.19,,,103.36,102.54,,101.36,100.69,100.07,98.912000000000006,98.972999999999999,98.123999999999995,97.581999999999994,100.2,100.4,100.1,99.8,99.5,,,97.7,97,,95.8,95.2,94.6,93.5,93.6,92.8,92.3,59.5
176,L3R001,Beervlei Dam ,Beervlei,33.076779999999999,23.49137,EC,15,Groot River @ Beervlei Dam,20580,85.778999999999996,Flood Control Dam for Gamtoos River Valley,0,0,0,0,,,0,0,,2.035,1.798,1.613,1.402,1.329,0.973,0.961,0,0,0,0,0,,,0,0,,2.4,2.1,1.9,1.6,1.5,1.1,1.1,0
177,L8R001,Kouga Dam ,Kouga,33.740580000000001,24.58755,EC,15,Kouga River @ Kouga Dam,3887,125.91,,126.41,125.85,124.78,123.72,,,117.87,115.82,,111.82,109.72,107.4,103.8,102.51,100.87,99.197999999999993,99.9,100.4,100,99.1,98.3,,,93.6,92,,88.8,87.1,85.3,82.4,81.400000000000006,80.099999999999994,78.8,71.099999999999994
178,L8R002,Haarlem Dam ,Haarlem,33.769739999999999,23.317769999999999,WCo,16,Groot River @ Haarlem Dam,29,4.603,,,4.625,4.652,4.614,,,4.378,4.273,,4.027,3.888,3.728,3.514,3.342,3.338,,100.7,,100.5,101.1,100.2,,,95.1,92.8,,87.5,84.5,81,76.3,72.599999999999994,72.5,,78.3
179,L9R001,Loerie Dam ,Loerie,33.865029999999997,25.038810000000002,EC,15,Loerie Spruit @ Loerie Dam,138,3.026,Balancing Dam,3.041,2.99,2.756,,,,1.704,1.687,,1.199,1.272,1.235,0.796,0.668,0.845,1.106,100.9,100.5,98.8,91.1,,,,56.3,55.8,,39.6,42,40.799999999999997,26.3,22.1,27.9,36.5,58.8
180,M1R001,Groendal Dam ,Groendal,33.690489999999997,25.26576,EC,15,Swartkops River @ Groendal Dam,264,11.638,,11.651999999999999,11.638,11.619,11.576000000000001,,,11.195,11.207000000000001,,10.978999999999999,10.885999999999999,10.787000000000001,10.653,10.491,10.465,10.36,100.2,100.1,100,99.8,99.5,,,96.2,96.3,,94.3,93.5,92.7,91.5,90.1,89.9,89,98.4
185,N1R001,Nqweba (V. Rynevelds)  ,"Nqweba (Van Ryneveldspas)",32.235259999999997,24.52853,EC,15,Sondags River @ Nqweba (V.Rynevelds),3667,44.718000000000004,,19.213999999999999,18.890999999999998,18.454999999999998,18.023,,,16.907,18.978999999999999,,19.254999999999999,18.954999999999998,18.599,18.109000000000002,18.954999999999998,17.562999999999999,17.288,43.8,43,42.2,41.3,40.299999999999997,,,37.799999999999997,42.4,,43.1,42.4,41.6,40.5,42.4,39.299999999999997,38.700000000000003,52.5
186,N2R001,Darlington Dam ,Darlington,33.206110000000002,25.147110000000001,EC,15,Sondags River @ Darlington Dam,16820,180.83,,52.645000000000003,48.527999999999999,44.213999999999999,37.978999999999999,,,24.689,22.826000000000001,,29.489000000000001,30.334,30.050999999999998,32.564,36.057000000000002,40.26,47.683,31.9,29.1,26.8,24.4,21,,,13.7,12.6,,16.3,16.8,16.600000000000001,18,19.899999999999999,22.3,26.4,35.200000000000003
191,Q1R001,Grassridge Dam ,Grassridge,31.767800000000001,25.466149999999999,EC,15,Groot Brak River @ Grassridge Dam,4326,46.19,Balancing Dam,10.95,11.215999999999999,10.818,11.76,,,17.379000000000001,19.271999999999998,,18.995000000000001,16.097000000000001,15.193,22.282,23.413,24.867000000000001,25.292000000000002,24.7,23.7,24.3,23.4,25.5,,,37.6,41.7,,41.1,34.799999999999997,32.9,48.2,50.7,53.8,54.8,34.1
193,Q4R002,Kommandodrift Dam ,"Kommando drift",32.108490000000003,26.042000000000002,EC,15,Tarka River @ Kommandodrift Dam,3623,55.87,,41.655999999999999,40.823999999999998,39.927,39.078000000000003,,,36.908000000000001,36.369,,37.222000000000001,37.624000000000002,36.866,36.545999999999999,35.954000000000001,36.411999999999999,36.731000000000002,75.8,74.599999999999994,73.099999999999994,71.5,69.900000000000006,,,66.099999999999994,65.099999999999994,,66.599999999999994,67.3,66,65.400000000000006,64.400000000000006,65.2,65.7,70.2
194,Q5R001,Elandsdrift Dam ,Elands Drift,32.530079999999998,25.756239999999998,EC,15,Great Fish River @ Elandsdrift Dam,16865,3.546,Balancing Dam,1.223,0.67,1.042,,,,0.59,1.167,,0.866,0.505,0.425,0.498,0.459,3.128,1.531,31.7,34.5,18.899999999999999,29.4,,,,16.600000000000001,32.9,,24.4,14.2,12,14.1,12.9,88.2,43.2,42.1
195,Q8R001,De Mistkraal Dam,De Mist Kraal,32.967089999999999,25.671430000000001,EC,15,Little Fish River @ De Mistkraal Dam,1868,2.053,Balancing Dam,1.583,1.433,1.661,0.938,,,1.642,1.488,,1.708,1.762,1.526,2.017,1.824,2.143,1.88,78,77.099999999999994,69.8,80.900000000000006,45.7,,,80,72.5,,83.2,85.8,74.3,98.2,88.8,104.3,91.6,56.4
,Q9L001,Glen Melville,Glen Melville,,,EC,,,,6.229,,,2.776,2.341,2.282,,,3.377,2.986,,5.69,6.009,5.69,6.13,6.054,5.926,6.16,,,44.6,37.6,36.6,,,54.2,47.9,,91.4,96.5,91.4,98.4,97.2,95.1,98.9,65.7
196,Q9R001,Katrivier Dam ,Katrivier,32.57197,26.758050000000001,EC,15,Kat River @ Katrivier Dam,265,24.681999999999999,,24.766999999999999,24.745000000000001,24.681999999999999,24.597000000000001,,,23.76,23.186,,23.247,23.268000000000001,23.146000000000001,23.308,23.207000000000001,24.449000000000002,24.724,100.5,100.3,100.3,100,99.7,,,96.3,93.9,,94.2,94.3,93.8,94.4,94,99.1,100.2,99.6
197,R1R001,Sandile Dam ,Sandile,32.71828,27.10585,EC,12,Keiskamma River @ Sandile Dam,353,29.655999999999999,,29.733000000000001,29.675000000000001,29.521999999999998,29.274000000000001,,,27.204000000000001,26.672000000000001,,25.803000000000001,25.7,25.291,25.376000000000001,25.172999999999998,26.584,27.545999999999999,100.5,100.3,100.1,99.5,98.7,,,91.7,89.9,,87,86.7,85.3,85.6,84.9,89.6,92.9,100.2
198,R1R003,Binfield Dam ,Binfield,32.69426,26.905519999999999,EC,12,Tyume River @ Binfield Dam,113,36.848999999999997,,36.848999999999997,36.848999999999997,36.848999999999997,36.771000000000001,,,36.509,36.378999999999998,,35.988999999999997,35.936999999999998,35.808,35.679000000000002,35.601999999999997,36.848999999999997,36.848999999999997,100,100,100,100,99.8,,,99.1,98.7,,97.7,97.5,97.2,96.8,96.6,100,100,99.6
200,R2R001,Laing Dam ,Laing,32.969009999999997,27.493259999999999,EC,12,Buffalo River @ Laing Dam,914,18.904,,19.068000000000001,18.986000000000001,18.966000000000001,18.945,,,18.803000000000001,18.681000000000001,,18.478999999999999,18.539000000000001,18.539000000000001,18.459,18.399000000000001,19.068000000000001,19.068000000000001,100.5,100.9,100.4,100.3,100.2,,,99.5,98.8,,97.8,98.1,98.1,97.6,97.3,100.9,100.9,100.9
201,R2R002,Rooikrantz Dam ,Rooikrantz,32.755270000000003,27.325890000000001,EC,12,Buffalo River @ Rooikrantz Dam,51,4.799,,4.829,4.829,4.799,4.791,,,4.602,4.692,,4.654,4.715,4.662,4.669,4.602,4.829,4.814,100.2,100.6,100.6,100,99.8,,,95.9,97.8,,97,98.2,97.1,97.3,95.9,100.6,100.3,100.2
202,R2R003,Bridle Drift Dam,Bridle Drift,32.989490000000004,27.730699999999999,EC,12,Buffalo River @ Bridle Drift Dam,1176,97.923000000000002,,96.343000000000004,95.594999999999999,95.149000000000001,94.26,,,91.481999999999999,90.472999999999999,,88.328000000000003,87.478999999999999,86.356999999999999,84.415999999999997,83.456000000000003,85.66,83.73,98.7,98.4,97.6,97.2,96.3,,,93.4,92.4,,90.2,89.3,88.2,86.2,85.2,87.5,85.5,79.400000000000006
203,R3R001,Nahoon Dam ,Nahoon,32.909669999999998,27.811240000000002,EC,12,Nahoon River @ Nahoon Dam,473,19.247,,17.286999999999999,17.135000000000002,16.751000000000001,16.456,,,15.452,15.095000000000001,,14.455,14.151999999999999,13.853,13.253,13.074999999999999,13.057,13.04,91.1,89.8,89,87,85.5,,,80.3,78.400000000000006,,75.099999999999994,73.5,72,68.900000000000006,67.900000000000006,67.8,67.7,62.2
204,S1L001,Macubeni Dam,Macubeni,,,EC,12,,,3.373,,2.715,2.663,2.624,2.617,,,2.489,2.546,,2.65,3.293,3.25,3.373,3.307,3.322,3.307,83.1,80.5,79,77.8,77.599999999999994,,,73.8,75.5,,78.599999999999994,97.6,96.4,100,98.1,98.5,98.1,100
205,S1R001,Xonxa Dam ,Xonxa,31.838039999999999,27.18168,EC,12,White Kei River @ Xonxa Dam,1450,115.86,,113.12,115.48,112.37,111.63,,,112,114.86,,115.99,116.25,115.86,115.86,115.86,116.25,116.38,97.8,97.6,99.7,97,96.4,,,96.7,99.1,,100.1,100.3,100,100,100,100.3,100.5,99.9
206,S2R001,Lubisi Dam ,Lubisi,31.795750000000002,27.430289999999999,EC,12,Indwe River @ Lubisi Dam,1300,158,,120.12,116.85,115.01,113.01,,,107.08,106.47,,107.86,107.08,105.7,105.53,105.1,105.1,105.44,76.400000000000006,76,74,72.8,71.5,,,67.8,67.400000000000006,,68.3,67.8,66.900000000000006,66.8,66.5,66.5,66.7,83.8
207,S2R002,Doornrivier Dam ,Doornrivier,31.512589999999999,27.334129999999998,EC,12,Doorn River @ Doornrivier Dam,295,17.099,,10.680999999999999,10.708,9.726000000000001,9.726000000000001,,,9.752000000000001,9.443,,9.909000000000001,9.83,9.701,9.935,9.83,9.882,9.856,62.5,62.5,62.6,56.9,56.9,,,57,55.2,,57.9,57.5,56.7,58.1,57.5,57.8,57.6,63.6
208,S3L001,Boesmanskrantz Dam,Boesmanskrantz,,,EC,12,,,4.818,,4.786,4.781,4.729,4.65,,,4.488,4.444,,4.538,4.379,4.319,4.158,4.169,4.201,4.212,99.8,99.3,99.2,98.2,96.5,,,93.2,92.2,,94.2,90.9,89.6,86.3,86.5,87.2,87.4,99.5
209,S3R001,Waterdown Dam ,Waterdown,32.28539,26.859169999999999,EC,12,Klipplaat River @ Waterdown Dam,602,37.441000000000003,,37.545999999999999,37.414000000000001,37.151000000000003,36.863,,,35.645000000000003,35.337000000000003,,34.625,34.322000000000003,33.945999999999998,33.521999999999998,33.746000000000002,35.927999999999997,34.195999999999998,100.4,100.3,99.9,99.2,98.5,,,95.2,94.4,,92.5,91.7,90.7,89.5,90.1,96,91.3,99.6
210,S3R003,Oxkraal Dam ,Oxkraal,32.205199999999998,26.7608,EC,12,Oskraal River @ Oxkraal Dam,391,14.829000000000001,,14.422000000000001,13.96,14.786,,,,9.676,9.35,,8.861000000000001,8.507999999999999,7.947,7.59,7.231,7.803,7.846,97.5,97.3,94.1,99.7,,,,65.2,63.1,,59.8,57.4,53.6,51.2,48.8,52.6,52.9,97.5
211,S5R001,Ncora Dam ,Ncora,31.786079999999998,27.677669999999999,EC,12,Tsomo River @ Ncora Dam,1173,147.28,,73.05,72.766999999999996,72.108000000000004,71.453000000000003,,,73.429000000000002,74.094999999999999,,97.206000000000003,102.01,102.23,109.75,107.52,108.22,111.29,49.7,49.6,49.4,49,48.5,,,49.9,50.3,,66,69.3,69.400000000000006,74.5,73,73.5,75.599999999999994,95.3
212,S5R002,Tsojana Dam,Tsojana,,,EC,12,,,12.272,,12.146000000000001,12.131,12.116,12.102,,,12.073,12.087,,12.272,12.272,12.262,12.272,12.233000000000001,12.272,12.272,99.1,99,98.8,98.7,98.6,,,98.4,98.5,,100,100,99.9,100,99.7,100,100,100
213,S6R001,Gubu Dam ,Gubu,32.609639999999999,27.278739999999999,EC,12,Gubu River @ Gubu Dam,23,8.504,,8.504,8.526,8.494,8.44,,,8.236000000000001,8.236000000000001,,8.131,8.131,8.077999999999999,8.141,8.119999999999999,8.472,8.548,99.9,100,100.3,99.9,99.2,,,96.8,96.8,,95.6,95.6,95,95.7,95.5,99.6,100.5,100.6
214,S6R002,Wriggleswade Dam ,Wriggleswade,32.578319999999998,27.558789999999998,EC,12,Kubisi River @ Wriggleswade Dam,447,91.471000000000004,,91.171000000000006,91.370999999999995,91.471000000000004,91.070999999999998,,,90.870999999999995,89.876999999999995,,89.481999999999999,89.977000000000004,89.778999999999996,90.373000000000005,90.274000000000001,92.772999999999996,91.671000000000006,99.7,99.7,99.9,100,99.6,,,99.3,98.3,,97.8,98.4,98.2,98.8,98.7,101.4,100.2,100.3
215,S7R001,Gcuwa Dam ,Gcuwa,32.319690000000001,28.134979999999999,EC,12,Gcuwa River @ Gcuwa Dam,712,0.601,,0.404,0.553,0.601,0.501,,,0.516,0.353,,0.516,0.406,0.242,0.601,0.588,0.601,,87.2,67.099999999999994,91.9,100,83.4,,,85.8,58.7,,85.8,67.400000000000006,40.200000000000003,100,97.7,100,,68.099999999999994
216,S7R002,Xilinxa Dam ,Xilinxa,32.142290000000003,28.09938,EC,12,Xilinxa River @ Xilinxa Dam,199,13.823,,6.181,5.707,5.645,5.569,,,4.931,4.633,,4.384,4.508,4.398,3.829,3.765,3.97,4.035,45,44.7,41.3,40.9,40.299999999999997,,,35.700000000000003,33.5,,31.7,32.6,31.8,27.7,27.2,28.7,29.2,70.599999999999994
217,S7R003,Toleni Dam,Toleni,31.551030000000001,28.741,EC,12,Mtata River @ Umtata Dam,886,0.177,,0.131,0.128,0.124,0.119,,,0.098,0.094,,0.081,0.079,0.073,0.081,,0.091,0.097,75.3,73.900000000000006,72.5,70.2,67.3,,,55.4,53.2,,45.9,44.9,41,45.9,,51.2,55.1,79.7
,T2R001,Umtata,Umtata,,,EC,,,,244.67,,,244.85,245.87,245.87,,,244.6,246.13,,246.63,247.65,246.38,246.13,245.62,247.65,247.4,,,100.1,100.5,100.5,,,100,100.6,,100.8,101.2,100.7,100.6,100.4,101.2,101.1,101.2
218,T2R002,Mabeleni Dam ,Umtata,31.446760000000001,28.562449999999998,EC,12,Mhlahlane River @ Mabeleni Dam,10,2.099,,243.33,2.083,2.078,2.083,,,2.046,2.067,,2.083,2.088,2.078,2.083,2.078,2.099,2.099,98.9,99.4,99.2,99,99.2,,,97.5,98.5,,99.2,99.5,99,99.2,99,100,100,100
220,T2R003,Corana Dam ,Corana,31.437449999999998,28.874210000000001,EC,12,Corana River @ Corana Dam,5.3,0.754,,2.083,0.182,0.176,0.167,,,0.143,0.14,,0.209,0.213,0.205,0.23,0.22,0.253,0.255,98,99.2,24.1,23.3,22.2,,,19,18.600000000000001,,27.8,28.3,27.2,30.5,29.2,33.6,33.9,43.9
221,T3R001,Belfort Dam,Belfort,,,EC,12,,,0.413,,0.158,0.154,0.149,0.145,,,0.132,0.128,,0.234,0.228,0.351,0.413,0.405,0.413,0.396,39.299999999999997,38.200000000000003,37.1,36.1,35,,,31.9,30.9,,56.5,55.2,85,100,98,100,95.8,100
222,T3R003,Ntenetyana Dam,Ntenetyana,,,EC,12,,,1.512,,0.723,0.715,0.693,0.677,,,0.643,0.634,,0.63,0.62,0.612,0.612,0.61,0.614,0.818,48.8,47.8,47.3,45.8,44.8,,,42.6,41.9,,41.7,41,40.5,40.5,40.299999999999997,40.6,54.1,100
223,T3R004,Nqadu Dam,Nqadu,,,EC,12,,,1.274,,0.672,0.672,0.674,0.674,,,0.644,0.637,,0.627,0.635,0.63,0.635,0.627,0.64,0.645,56.4,52.8,52.8,52.9,52.9,,,50.5,50,,49.2,49.9,49.5,49.9,49.2,50.2,50.6,70.900000000000006
225,T7R001,Mlanga Dam,Mlanga,,,EC,12,,,1.597,,0.247,0.23,0.212,0.202,,,0.166,0.162,,0.185,0.182,0.172,0.201,0.181,0.202,0.185,16.3,15.4,14.4,13.3,12.7,,,10.4,10.1,,11.6,11.4,10.7,12.6,11.3,12.7,11.6,45.5
226,U2R001,Midmar Dam ,Midmar,29.495090000000001,30.201450000000001,KN,11,Mgeni River @ Midmar Dam,928,235.42,,118.08,117,116.06,114.85,,,113.12,110.88,,110.22,110.88,109.57,108.92,107.88,108.53,108.79,50.9,50.2,49.7,49.3,48.8,,,48.1,47.1,,46.8,47.1,46.5,46.3,45.8,46.1,46.2,78.400000000000006
227,U2R002,Nagle Dam ,Nagle,29.59057,30.62743,KN,11,Mgeni River @ Nagle Dam,2535,23.236000000000001,,15.111000000000001,15.585000000000001,16.898,18.033000000000001,,,19.34,20.289000000000001,,19.164999999999999,19.295999999999999,18.859000000000002,17.606999999999999,17.294,18.119,20.109000000000002,60.5,65,67.099999999999994,72.7,77.599999999999994,,,83.2,87.3,,82.5,83,81.2,75.8,74.400000000000006,78,86.5,75.599999999999994
228,U2R003,Albert Falls Dam,Albert-Falls,29.431090000000001,30.425940000000001,KN,11,Mgeni River @ Albert Falls Dam,1653,288.14,,123.59,120.48,118.93,117.07,,,112.22,107.99,,107.99,107.51,107.99,106.86,104.92,103.79,101.89,44,42.9,41.8,41.3,40.6,,,38.9,37.5,,37.5,37.299999999999997,37.5,37.1,36.4,36,35.4,75
229,U2R004,Inanda Dam ,Inanda,29.708909999999999,30.867069999999998,KN,11,Mgeni River @ Inanda Dam,4079,237.4,,196.23,195.58,196.1,195.58,,,193,190.95,,191.72,190.32,188.54,187.78,186.14,186.27,190.57,83.6,82.7,82.4,82.6,82.4,,,81.3,80.400000000000006,,80.8,80.2,79.400000000000006,79.099999999999994,78.400000000000006,78.5,80.3,96
230,U3R001,Hazelmere Dam ,Hazelmere,29.598379999999999,31.042850000000001,KN,11,Mdloti River @ Hazelmere Dam,376,17.675999999999998,,4.395,4.395,5.047,5.468,,,5.476,5.757,,6.039,5.969,5.841,5.987,5.874,6.057,6.772,25.1,24.9,24.9,28.6,30.9,,,31,32.6,,34.200000000000003,33.799999999999997,33,33.9,33.200000000000003,34.299999999999997,38.299999999999997,45.2
235,V1R001,Spioenkop Dam ,Spioenkop,28.6813,29.517099999999999,KN,7,Tugela River @ Spioenkop Dam,2480,270.64,,154.44,152.33000000000001,151.6,150.76,,,149.72,151.07,,159.66,162.57,163,170.71,171.72,180.37,185.59,57.5,57.1,56.3,56,55.7,,,55.3,55.8,,59,60.1,60.2,63.1,63.5,66.599999999999994,68.599999999999994,100.3
236,V1R002,Driel Barrage ,Driel Barrage,28.763500000000001,29.29101,KN,7,Tugela River @ Driel Barrage,1656,8.694000000000001,Balancing Dam,7.984,,,7.984,,,8.548,8.895,,8.895,8.694000000000001,8.404,8.404,8.291,8.291,8.291,91.8,91.8,,,91.8,,,98.3,102.3,,102.3,100,96.7,96.7,95.4,95.4,95.4,99.2
237,V1R003,Woodstock Dam ,Woodstock,28.758710000000001,29.246310000000001,KN,7,Tugela River @ Woodstock Dam,1149,373.25,Balancing Dam,296.58999999999997,,,296.58999999999997,,,238.93,242.67,,264.79000000000002,275.70999999999998,276.44,,287.63,287.63,287.63,79.5,79.5,,,79.5,,,64,65,,70.900000000000006,73.900000000000006,74.099999999999994,,77.099999999999994,77.099999999999994,77.099999999999994,97
239,V2R001,Craigie Burn Dam,Craigie Burn,29.16329,30.287040000000001,KN,7,Mnyamvubu River @ Craigie Burn Dam,154,22.466000000000001,,14.398999999999999,14.058,14.042,14.35,,,14.074,13.881,,14.696,15.031000000000001,15.183999999999999,15.031000000000001,14.663,14.73,15.065,65.900000000000006,64.099999999999994,62.6,62.5,63.9,,,62.6,61.8,,65.400000000000006,66.900000000000006,67.599999999999994,66.900000000000006,65.3,65.599999999999994,67.099999999999994,100.3
240,V2R002,Mearns Dam ,Mearns,29.246829999999999,29.970590000000001,KN,7,Mooi River @ Mearns Dam,932,5.163,,2.979,3.071,2.819,2.734,,,3.504,4.053,,5.202,5.345,5.214,4.381,3.238,4.285,5.057,58.1,57.7,59.5,54.6,53,,,67.900000000000006,78.5,,100.8,103.5,101,84.9,62.7,83,97.9,106.4
241,V2R003,Spring Grove Dam,Spring Grove,29.319749999999999,29.964960000000001,KN,7,Mooi River @ Spring Grove Dam,339,139.19999999999999,,114.35,111.51,110.2,108.62,,,101.34,100.74,,109.27,113.4,114.35,118.04,118.04,119.9,121.4,83.9,82.1,80.099999999999994,79.2,78,,,72.8,72.400000000000006,,78.5,81.5,82.1,84.8,84.8,86.1,87.2,100.2
242,V3R001,Ntshingwayo Dam ,Ntshingwayo,27.953399999999998,29.948709999999998,KN,7,Ngagane River @ Ntshingwayo Dam,830,194.56,,111.56,111.09,109.91,108.05,,,102.95,104.8,,108.05,108.51,107.12,109.68,108.05,109.91,112.75,58.6,57.3,57.1,56.5,55.5,,,52.9,53.9,,55.5,55.8,55.1,56.4,55.5,56.5,57.9,83.5
244,V3R003,Zaaihoek Dam ,Zaaihoek,27.439350000000001,30.059560000000001,KN,7,Slang River @ Zaaihoek Dam,620,184.63,,121.48,119.9,117.98,117.98,,,111.25,110.73,,108.89,108.37,108.11,108.81,107.94,107.94,107.94,66.599999999999994,65.8,64.900000000000006,63.9,63.9,,,60.3,60,,59,58.7,58.6,58.9,58.5,58.5,58.5,90.5
245,V7R001,Wagendrift Dam ,Wagendrift,29.041989999999998,29.85294,KN,7,Boesmans River @ Wagendrift Dam,744,55.9,,42.393000000000001,42.393000000000001,40.713000000000001,40.299999999999997,,,38.868000000000002,39.316000000000003,,55.331000000000003,56.637999999999998,56.268000000000001,56.161999999999999,56.11,56.531999999999996,56.320999999999998,77.400000000000006,75.8,75.8,72.8,72.099999999999994,,,69.5,70.3,,99,101.3,100.7,100.5,100.4,101.1,100.8,100.8
246,W1R001,Goedertrouw Dam ,Goedertrouw,28.771429999999999,31.468730000000001,KN,6,Mhlatuze River @ Goedertrouw Dam,1279,301.26,,96.058000000000007,93.605000000000004,94.228999999999999,94.456000000000003,,,90.575000000000003,86.367999999999995,,81.628,82.296000000000006,79.694999999999993,75.394999999999996,72.899000000000001,71.489000000000004,70.766000000000005,32.5,31.9,31.1,31.3,31.4,,,30.1,28.7,,27.1,27.3,26.5,25,24.2,23.7,23.5,45.1
248,W2R001,Klipfontein Dam ,Klipfontein,27.838730000000002,30.815519999999999,KN,6,Wit Mfolozi River @ Klipfontein Dam,340,18.085999999999999,,4.062,3.835,4.04,3.899,,,3.465,3.678,,3.586,3.699,3.824,3.709,3.426,4.49,4.611,23.6,22.5,21.2,22.3,21.6,,,19.2,20.3,,19.8,20.399999999999999,21.1,20.5,18.899999999999999,24.8,25.5,66.3
249,W3R001,Hluhluwe Dam ,Hluhluwe,28.121749999999999,32.179519999999997,KN,6,Hluhluwe River @ Hluhluwe Dam,723,25.893000000000001,,7.16,6.95,6.739,6.557,,,5.86,5.517,,5.045,5.002,4.843,4.677,4.596,4.565,4.485,28.4,27.7,26.8,26,25.3,,,22.6,21.3,,19.5,19.3,18.7,18.100000000000001,17.7,17.600000000000001,17.3,51.4
250,W4R001,Pongolapoort Dam ,Pongolapoort,27.418759999999999,32.071199999999997,KN,6,Phongolo River @ Pongolapoort Dam,7814,2267.0700000000002,,1155.58,1155.58,1150.3800000000001,1145.19,,,1120.8900000000001,1119.17,,1096.1300000000001,1084.3399999999999,1075.1400000000001,1060.21,1046.9100000000001,1048.57,1053.55,51.5,51,51,50.7,50.5,,,49.4,49.4,,48.4,47.8,47.4,46.8,46.2,46.3,46.5,61.2
253,W5R001,Jericho Dam ,Jericho,26.65521,30.483840000000001,M,6,Mpama River @ Jericho Dam,218,59.273000000000003,,45.817,45.777000000000001,45.341999999999999,45.106000000000002,,,43.975999999999999,44.325000000000003,,44.792000000000002,44.597000000000001,44.48,44.87,44.636000000000003,46.295000000000002,47.753999999999998,77.8,77.3,77.2,76.5,76.099999999999994,,,74.2,74.8,,75.599999999999994,75.2,75,75.7,75.3,78.099999999999994,80.599999999999994,77
254,W5R002,Westoe Dam ,Westoe,26.50572,30.625610000000002,M,6,Usutu River @ Westoe Dam,531,60.094999999999999,,27.295000000000002,27.466000000000001,27.643000000000001,27.556999999999999,,,27.385999999999999,27.643000000000001,,27.9,27.856999999999999,27.771000000000001,29.045999999999999,29.045999999999999,31.067,32.298999999999999,45.9,45.9,46.1,46,45.9,,,45.6,46,,46.4,46.4,46.2,48.3,48.3,51.7,53.7,55.4
255,W5R003,Morgenstond Dam ,Morgenstond,26.71114,30.544139999999999,M,6,Ngwempisi River @ Morgenstond Dam,548,99.988,,54.084000000000003,54.427999999999997,54.595999999999997,54.39,,,53.911000000000001,54.459000000000003,,53.435000000000002,53.707000000000001,57.612000000000002,53.707000000000001,52.558999999999997,54.802999999999997,56.9,54.4,54,54.3,54.6,54.4,,,53.9,54.5,,53.4,53.7,57.6,53.7,52.6,54.8,56.9,83.4
256,W5R004,Heyshope Dam ,Heyshope,26.997530000000001,30.524840000000001,M,6,Assegaai River @ Heyshope Dam,1120,444.94,,394.89,396.75,394.43,392.12,,,386.63,389.82,,390.74,388.91,390.74,392.58,391.2,399.95,408.76,89.6,88.8,89.2,88.6,88.1,,,86.9,87.6,,87.8,87.4,87.8,88.2,87.9,89.9,91.9,100
257,X1R001,Nooitgedacht Dam ,Nooigedacht,25.94725,30.081189999999999,M,5,Komati River @ Nooitgedacht Dam,1585,78.343000000000004,,53.22,51.871000000000002,51.232999999999997,49.973999999999997,,,51.987000000000002,52.689,,51.695999999999998,51.06,50.600999999999999,51.06,50.543999999999997,52.689,54.594000000000001,70,67.900000000000006,66.2,65.400000000000006,63.8,,,66.400000000000006,67.3,,66,65.2,64.599999999999994,65.2,64.5,67.3,69.7,94.6
258,X1R003,Vygeboom Dam ,Vygeboom,25.88233,30.61909,M,5,Komati River @ Vygeboom Dam,3127,78.02,,59.298999999999999,60.179000000000002,60.12,59.533000000000001,,,56.991,57.048000000000002,,55.628999999999998,54.61,53.491,52.606000000000002,51.295000000000002,52.441000000000003,53.546999999999997,77.5,76,77.099999999999994,77.099999999999994,76.3,,,73,73.099999999999994,,71.3,70,68.599999999999994,67.400000000000006,65.7,67.2,68.599999999999994,100.9
259,X1R004,Driekoppies Dam ,Driekoppies,25.712520000000001,31.530149999999999,M,5,Lomati River @ Driekoppies Dam,902,250.92,,152.76,,147.16,143.28,,,128.97,126.56,,,117.7,114.73,111.93,109.74,111.81,111.81,62.3,60.9,,58.6,57.1,,,51.4,50.4,,,46.9,45.7,44.6,43.7,44.6,44.6,92.2
260,X1R005,Maguga Dam,Maguga,,,S,5,,,333.75,,144.30000000000001,,144.66,141.33000000000001,,,121.12,117.01,,118.47,114.32,109.48,103.45,98.8,103.8,103.8,45,43.2,,43.3,42.3,,,36.299999999999997,35.1,,35.5,34.299999999999997,32.799999999999997,31,29.6,31.1,31.1,95
261,X2R001,Longmere Dam ,Longmere,25.279630000000001,31.001000000000001,M,5,Wit River @ Longmere Dam,106,4.202,,2.806,,3,2.848,,,2.971,2.365,,3.045,2.862,2.563,2.715,2.537,2.784,2.905,72.099999999999994,66.8,,71.400000000000006,67.8,,,70.7,56.3,,72.5,68.099999999999994,61,64.599999999999994,60.4,66.3,69.099999999999994,95.7
262,X2R002,Klipkopjes Dam ,Klipkopjes,25.22026,31.007470000000001,M,5,Wit River @ Klipkopjes Dam,76,11.776999999999999,,7.576,,7.297,7.403,,,6.719,6.617,,5.918,5.918,5.918,5.425,5.379,5.304,5.334,64.400000000000006,64.3,,62,62.9,,,57.1,56.2,,50.3,50.3,50.3,46.1,45.7,45,45.3,99.9
263,X2R003,Witklip Dam ,Witklip,25.23649,30.89967,M,5,Sand River @ Witklip Dam,64,12.519,,5.847,5.796,6.016,6.285,,,,5.859,,5.72,5.583,5.438,5.114,4.926,5.147,5.695,47.9,46.7,46.3,48.1,50.2,,,,46.8,,45.7,44.6,43.4,40.799999999999997,39.299999999999997,41.1,45.5,96.2
264,X2R004,Primkop Dam ,Primkop,25.385439999999999,31.070989999999998,M,5,Wit River @ Primkop Dam,262,1.899,,0.356,,0.419,0.478,,,0.412,0.544,,0.371,0.335,0.279,0.281,0.278,0.525,1.111,20.7,18.8,,22.1,25.2,,,21.7,28.6,,19.5,17.600000000000001,14.7,14.8,14.6,27.7,58.5,91
265,X2R005,Kwena Dam ,Kwena,25.360140000000001,30.386690000000002,M,5,Krokodil River @ Kwena Dam,954,158.88999999999999,,98.994,95.763000000000005,95.409000000000006,97.28,,,94.087999999999994,91.828000000000003,,86.835999999999999,84.777000000000001,82.191000000000003,78.876999999999995,76.644000000000005,75.959999999999994,78.025000000000006,64.7,62.3,60.3,60,61.2,,,59.2,57.8,,54.6,53.4,51.7,49.6,48.2,47.8,49.1,100.6
266,X3R001,Da Gama Dam,Da Gama,25.141850000000002,31.02074,M,5,White Waters River @ Da Gama Dam,61,13.526,,8.115,8.066000000000001,8.260999999999999,8.507999999999999,,,8.459,8.212,,8.31,8.066000000000001,8.066000000000001,7.826,7.826,7.97,8.31,55.4,60,59.6,61.1,62.9,,,62.5,60.7,,61.4,59.6,59.6,57.9,57.9,58.9,61.4,94.8
267,X3R002,Inyaka Dam ,Inyaka,24.884969999999999,31.084720000000001,M,5,Marite River @ Inyaka Dam,211,123.66,,92.82,90.932000000000002,90.531000000000006,90.263999999999996,,,87.296000000000006,85.867000000000004,,84.007000000000005,82.802999999999997,81.736999999999995,79.569000000000003,78.468000000000004,79.569000000000003,82.677000000000007,76.7,75.099999999999994,73.5,73.2,73,,,70.599999999999994,69.400000000000006,,67.900000000000006,67,66.099999999999994,64.3,63.5,64.3,66.900000000000006,100.1
